{
"type": "FeatureCollection",
"name": "touristSites",
"crs": { "type": "name", "properties": { "name": "urn:ogc:def:crs:OGC:1.3:CRS84" } },
"features": [
{ "type": "Feature", "properties": { "id": null, "name": "Lubimbi Hotsprings", "ward": null, "village": null, "description": "spring", "imgURL": null }, "geometry": { "type": "Point", "coordinates": [ 27.306038390000026, -18.475897459999942 ] } },
{ "type": "Feature", "properties": { "id": null, "name": "Lubimbi Hotsprings", "ward": null, "village": null, "description": "spring", "imgURL": null }, "geometry": { "type": "Point", "coordinates": [ 27.296342710000033, -18.470006369999965 ] } },
{ "type": "Feature", "properties": { "id": null, "name": "Dabukilwa Gorges", "ward": null, "village": null, "description": "gorge", "imgURL": null }, "geometry": { "type": "Point", "coordinates": [ 27.170620360000044, -18.227870699999983 ] } },
{ "type": "Feature", "properties": { "id": null, "name": "Binga Sand Beach", "ward": null, "village": null, "description": "beach", "imgURL": null }, "geometry": { "type": "Point", "coordinates": [ 27.305006580000054, -17.649799779999967 ] } },
{ "type": "Feature", "properties": { "id": null, "name": "Binga Springs", "ward": null, "village": null, "description": "spring", "imgURL": null }, "geometry": { "type": "Point", "coordinates": [ 27.358368290000044, -17.592911509999965 ] } },
{ "type": "Feature", "properties": { "id": null, "name": "Binga Crocodile Farm", "ward": null, "village": null, "description": "crocfarm", "imgURL": null }, "geometry": { "type": "Point", "coordinates": [ 27.354490390000024, -17.591292759999931 ] } },
{ "type": "Feature", "properties": { "id": null, "name": "Mariyango Islands", "ward": null, "village": null, "description": "island", "imgURL": null }, "geometry": { "type": "Point", "coordinates": [ 27.442235910000079, -17.559766309999929 ] } },
{ "type": "Feature", "properties": { "id": null, "name": "Green Island", "ward": null, "village": null, "description": "island", "imgURL": null }, "geometry": { "type": "Point", "coordinates": [ 27.525598770000045, -17.45505006999997 ] } },
{ "type": "Feature", "properties": { "id": null, "name": "Binga Sand Beach", "ward": null, "village": null, "description": "beach", "imgURL": null }, "geometry": { "type": "Point", "coordinates": [ 27.600207270000055, -17.370754359999978 ] } },
{ "type": "Feature", "properties": { "id": null, "name": "Zinyama Island", "ward": null, "village": null, "description": "island", "imgURL": null }, "geometry": { "type": "Point", "coordinates": [ 27.64478452000003, -17.312824619999958 ] } },
{ "type": "Feature", "properties": { "id": null, "name": "Chete Sand Beach", "ward": null, "village": null, "description": "beach", "imgURL": null }, "geometry": { "type": "Point", "coordinates": [ 27.66953194000007, -17.270011499999953 ] } },
{ "type": "Feature", "properties": { "id": null, "name": "Siachizinga Island", "ward": null, "village": null, "description": "island", "imgURL": null }, "geometry": { "type": "Point", "coordinates": [ 27.713434160000077, -17.256584729999929 ] } },
{ "type": "Feature", "properties": { "id": null, "name": "Chebira Springs", "ward": null, "village": null, "description": "spring", "imgURL": null }, "geometry": { "type": "Point", "coordinates": [ 27.781346810000059, -18.167392899999982 ] } },
{ "type": "Feature", "properties": { "id": null, "name": "Chebira Springs", "ward": null, "village": null, "description": "spring", "imgURL": null }, "geometry": { "type": "Point", "coordinates": [ 27.762242570000069, -18.14542997999996 ] } },
{ "type": "Feature", "properties": { "id": null, "name": "Kapari Salt Spring", "ward": null, "village": null, "description": "spring", "imgURL": null }, "geometry": { "type": "Point", "coordinates": [ 27.894588050000038, -18.090208149999967 ] } },
{ "type": "Feature", "properties": { "id": null, "name": "Tivuli Spring", "ward": null, "village": null, "description": "spring", "imgURL": null }, "geometry": { "type": "Point", "coordinates": [ 28.026799160000053, -18.064784609999947 ] } },
{ "type": "Feature", "properties": { "id": null, "name": "Muchaninga Spring", "ward": null, "village": null, "description": "spring", "imgURL": null }, "geometry": { "type": "Point", "coordinates": [ 27.707024180000076, -17.87089420999996 ] } },
{ "type": "Feature", "properties": { "id": null, "name": "Mazintuba Spring", "ward": null, "village": null, "description": "spring", "imgURL": null }, "geometry": { "type": "Point", "coordinates": [ 27.840431360000025, -17.70437174999995 ] } },
{ "type": "Feature", "properties": { "id": null, "name": "Binga Spring", "ward": null, "village": null, "description": "spring", "imgURL": null }, "geometry": { "type": "Point", "coordinates": [ 27.854582640000046, -17.679654779999964 ] } },
{ "type": "Feature", "properties": { "id": null, "name": "Tyetyebwende Spring", "ward": null, "village": null, "description": "spring", "imgURL": null }, "geometry": { "type": "Point", "coordinates": [ 27.856877, -17.602716699999974 ] } },
{ "type": "Feature", "properties": { "id": null, "name": "Manjolo Spring", "ward": null, "village": null, "description": "spring", "imgURL": null }, "geometry": { "type": "Point", "coordinates": [ 27.416843970000059, -17.722372169999971 ] } },
{ "type": "Feature", "properties": { "id": null, "name": "Chibwatata Hot Spring", "ward": null, "village": null, "description": "spring", "imgURL": null }, "geometry": { "type": "Point", "coordinates": [ 27.349943290000056, -17.599337549999973 ] } },
{ "type": "Feature", "properties": { "id": null, "name": "Kabira Hotspring", "ward": null, "village": null, "description": "spring", "imgURL": null }, "geometry": { "type": "Point", "coordinates": [ 27.122772040000029, -18.003929139999968 ] } },
{ "type": "Feature", "properties": { "id": null, "name": "Saba Hotspring", "ward": null, "village": null, "description": "spring", "imgURL": null }, "geometry": { "type": "Point", "coordinates": [ 27.11800850000003, -18.01338340999996 ] } },
{ "type": "Feature", "properties": { "id": null, "name": "Gogwe Gorge", "ward": null, "village": null, "description": "gorge", "imgURL": null }, "geometry": { "type": "Point", "coordinates": [ 28.759592830000031, -18.09623148999998 ] } },
{ "type": "Feature", "properties": { "id": null, "name": "Sengwa Gorge", "ward": null, "village": null, "description": "gorge", "imgURL": null }, "geometry": { "type": "Point", "coordinates": [ 28.235473240000033, -18.182799239999952 ] } },
{ "type": "Feature", "properties": { "id": null, "name": "Mulambo Gorge", "ward": null, "village": null, "description": "gorge", "imgURL": null }, "geometry": { "type": "Point", "coordinates": [ 27.964770660000056, -17.789814399999955 ] } },
{ "type": "Feature", "properties": { "id": null, "name": "Mucheni Gorge", "ward": null, "village": null, "description": "gorge", "imgURL": null }, "geometry": { "type": "Point", "coordinates": [ 27.879285630000027, -17.60657649999996 ] } },
{ "type": "Feature", "properties": { "id": null, "name": "Devil's Gorge", "ward": null, "village": null, "description": "gorge", "imgURL": null }, "geometry": { "type": "Point", "coordinates": [ 27.169257820000041, -18.459359199999938 ] } }
]
}
