{
"type": "FeatureCollection",
"name": "waterPoints",
"crs": { "type": "name", "properties": { "name": "urn:ogc:def:crs:OGC:1.3:CRS84" } },
"features": [
{ "type": "Feature", "properties": { "name": "Mpande", "ward": "3", "village": "Mpande", "description": "Non-Functional", "imgURL": null, "layer": null, "path": "D:\\perssonal\\BingaMasterPlan\\shapefiles\\Water Points\\Water Points.shp" }, "geometry": { "type": "Point", "coordinates": [ 27.954849872000068, -17.480795572999966 ] } },
{ "type": "Feature", "properties": { "name": "Kantontola", "ward": "11", "village": "Siamwenya", "description": "Fully Functional", "imgURL": null, "layer": null, "path": "D:\\perssonal\\BingaMasterPlan\\shapefiles\\Water Points\\Water Points.shp" }, "geometry": { "type": "Point", "coordinates": [ 27.527262862000043, -17.909813933999942 ] } },
{ "type": "Feature", "properties": { "name": "Takotapi", "ward": "11", "village": "Siamwenya", "description": "Fully Functional", "imgURL": null, "layer": null, "path": "D:\\perssonal\\BingaMasterPlan\\shapefiles\\Water Points\\Water Points.shp" }, "geometry": { "type": "Point", "coordinates": [ 27.524760238000056, -17.899163015999932 ] } },
{ "type": "Feature", "properties": { "name": "Bboboma", "ward": "11", "village": "Siamwenya", "description": "Non-Functional", "imgURL": null, "layer": null, "path": "D:\\perssonal\\BingaMasterPlan\\shapefiles\\Water Points\\Water Points.shp" }, "geometry": { "type": "Point", "coordinates": [ 27.540413558000068, -17.904933190999941 ] } },
{ "type": "Feature", "properties": { "name": "Kabeya 01", "ward": "11", "village": "Mansenya", "description": "Collapsed / Abandoned", "imgURL": null, "layer": null, "path": "D:\\perssonal\\BingaMasterPlan\\shapefiles\\Water Points\\Water Points.shp" }, "geometry": { "type": "Point", "coordinates": [ 27.483598480000069, -17.900571561999982 ] } },
{ "type": "Feature", "properties": { "name": "Masanta", "ward": "11", "village": "Mansenya", "description": "Fully Functional", "imgURL": null, "layer": null, "path": "D:\\perssonal\\BingaMasterPlan\\shapefiles\\Water Points\\Water Points.shp" }, "geometry": { "type": "Point", "coordinates": [ 27.469941585000072, -17.921831746999942 ] } },
{ "type": "Feature", "properties": { "name": "Katete", "ward": "11", "village": "Mansenya", "description": "Fully Functional", "imgURL": null, "layer": null, "path": "D:\\perssonal\\BingaMasterPlan\\shapefiles\\Water Points\\Water Points.shp" }, "geometry": { "type": "Point", "coordinates": [ 27.461235716000033, -17.924305295999943 ] } },
{ "type": "Feature", "properties": { "name": "Mankononga", "ward": "11", "village": "Mansenya", "description": "Fully Functional", "imgURL": null, "layer": null, "path": "D:\\perssonal\\BingaMasterPlan\\shapefiles\\Water Points\\Water Points.shp" }, "geometry": { "type": "Point", "coordinates": [ 27.475078640000049, -17.921958844999949 ] } },
{ "type": "Feature", "properties": { "name": "Mansenya 01", "ward": "11", "village": "Mansenya", "description": "Fully Functional", "imgURL": null, "layer": null, "path": "D:\\perssonal\\BingaMasterPlan\\shapefiles\\Water Points\\Water Points.shp" }, "geometry": { "type": "Point", "coordinates": [ 27.476275620000024, -17.90782927999993 ] } },
{ "type": "Feature", "properties": { "name": "Kabeya 02", "ward": "11", "village": "Mansenya", "description": "Fully Functional", "imgURL": null, "layer": null, "path": "D:\\perssonal\\BingaMasterPlan\\shapefiles\\Water Points\\Water Points.shp" }, "geometry": { "type": "Point", "coordinates": [ 27.482257291000053, -17.91118781299997 ] } },
{ "type": "Feature", "properties": { "name": "Mansenya 02", "ward": "11", "village": "Mansenya", "description": "Fully Functional", "imgURL": null, "layer": null, "path": "D:\\perssonal\\BingaMasterPlan\\shapefiles\\Water Points\\Water Points.shp" }, "geometry": { "type": "Point", "coordinates": [ 27.472947517000023, -17.913308742999959 ] } },
{ "type": "Feature", "properties": { "name": "Velemu", "ward": "11", "village": "Samson", "description": "Fully Functional", "imgURL": null, "layer": null, "path": "D:\\perssonal\\BingaMasterPlan\\shapefiles\\Water Points\\Water Points.shp" }, "geometry": { "type": "Point", "coordinates": [ 27.489430220000031, -17.871294194999962 ] } },
{ "type": "Feature", "properties": { "name": "Kawunga", "ward": "11", "village": "Kalombe", "description": "Fully Functional", "imgURL": null, "layer": null, "path": "D:\\perssonal\\BingaMasterPlan\\shapefiles\\Water Points\\Water Points.shp" }, "geometry": { "type": "Point", "coordinates": [ 27.480728594000027, -17.896375415999955 ] } },
{ "type": "Feature", "properties": { "name": "Ciibbaba  01", "ward": "11", "village": "Siantibule", "description": "Non-Functional", "imgURL": null, "layer": null, "path": "D:\\perssonal\\BingaMasterPlan\\shapefiles\\Water Points\\Water Points.shp" }, "geometry": { "type": "Point", "coordinates": [ 27.497487792000072, -17.905323498999962 ] } },
{ "type": "Feature", "properties": { "name": "Tujatane", "ward": "11", "village": "Makamba", "description": "Fully Functional", "imgURL": null, "layer": null, "path": "D:\\perssonal\\BingaMasterPlan\\shapefiles\\Water Points\\Water Points.shp" }, "geometry": { "type": "Point", "coordinates": [ 27.531778443000064, -17.921545336999941 ] } },
{ "type": "Feature", "properties": { "name": "Zibote", "ward": "11", "village": "Kalombe", "description": "Fully Functional", "imgURL": null, "layer": null, "path": "D:\\perssonal\\BingaMasterPlan\\shapefiles\\Water Points\\Water Points.shp" }, "geometry": { "type": "Point", "coordinates": [ 27.474789367000028, -17.898552525999946 ] } },
{ "type": "Feature", "properties": { "name": "Sebungwe River", "ward": "11", "village": "Kalombe 2", "description": "Partially Functional", "imgURL": null, "layer": null, "path": "D:\\perssonal\\BingaMasterPlan\\shapefiles\\Water Points\\Water Points.shp" }, "geometry": { "type": "Point", "coordinates": [ 27.478814699000054, -17.876808055999959 ] } },
{ "type": "Feature", "properties": { "name": "Chilelema", "ward": "11", "village": "Sivwala", "description": "Partially Functional", "imgURL": null, "layer": null, "path": "D:\\perssonal\\BingaMasterPlan\\shapefiles\\Water Points\\Water Points.shp" }, "geometry": { "type": "Point", "coordinates": [ 27.524221159000035, -17.891297624999936 ] } },
{ "type": "Feature", "properties": { "name": "Masikka Nutrition Garden", "ward": "11", "village": "Sivwala", "description": "Fully Functional", "imgURL": null, "layer": null, "path": "D:\\perssonal\\BingaMasterPlan\\shapefiles\\Water Points\\Water Points.shp" }, "geometry": { "type": "Point", "coordinates": [ 27.528819835000036, -17.869492038999965 ] } },
{ "type": "Feature", "properties": { "name": "Musenampongo", "ward": "11", "village": "Sivwala", "description": "Non-Functional", "imgURL": null, "layer": null, "path": "D:\\perssonal\\BingaMasterPlan\\shapefiles\\Water Points\\Water Points.shp" }, "geometry": { "type": "Point", "coordinates": [ 27.504849800000045, -17.883990213999937 ] } },
{ "type": "Feature", "properties": { "name": "Clean Water", "ward": "11", "village": "Njobola", "description": "Fully Functional", "imgURL": null, "layer": null, "path": "D:\\perssonal\\BingaMasterPlan\\shapefiles\\Water Points\\Water Points.shp" }, "geometry": { "type": "Point", "coordinates": [ 27.503300822000028, -17.951980741999932 ] } },
{ "type": "Feature", "properties": { "name": "Social Centre Borehole", "ward": "11", "village": "Makamba", "description": "Fully Functional", "imgURL": null, "layer": null, "path": "D:\\perssonal\\BingaMasterPlan\\shapefiles\\Water Points\\Water Points.shp" }, "geometry": { "type": "Point", "coordinates": [ 27.512127545000055, -17.905999687999952 ] } },
{ "type": "Feature", "properties": { "name": "Cibbabba Borehole  02", "ward": "11", "village": "Siantibule", "description": "Fully Functional", "imgURL": null, "layer": null, "path": "D:\\perssonal\\BingaMasterPlan\\shapefiles\\Water Points\\Water Points.shp" }, "geometry": { "type": "Point", "coordinates": [ 27.497702722000042, -17.905258468999932 ] } },
{ "type": "Feature", "properties": { "name": "Masikka Spring", "ward": "11", "village": "Sivwala", "description": "Fully Functional", "imgURL": null, "layer": null, "path": "D:\\perssonal\\BingaMasterPlan\\shapefiles\\Water Points\\Water Points.shp" }, "geometry": { "type": "Point", "coordinates": [ 27.526774757000055, -17.867170728999952 ] } },
{ "type": "Feature", "properties": { "name": "Kuciitamani Manzi", "ward": "11", "village": "Nkokonye", "description": "Fully Functional", "imgURL": null, "layer": null, "path": "D:\\perssonal\\BingaMasterPlan\\shapefiles\\Water Points\\Water Points.shp" }, "geometry": { "type": "Point", "coordinates": [ 27.498530201000051, -17.853385041999957 ] } },
{ "type": "Feature", "properties": { "name": "Siamwinde", "ward": "11", "village": "Sivwala", "description": "Non-Functional", "imgURL": null, "layer": null, "path": "D:\\perssonal\\BingaMasterPlan\\shapefiles\\Water Points\\Water Points.shp" }, "geometry": { "type": "Point", "coordinates": [ 27.501029987000038, -17.894874029999983 ] } },
{ "type": "Feature", "properties": { "name": "Malala", "ward": "11", "village": "Lubu 4", "description": "Fully Functional", "imgURL": null, "layer": null, "path": "D:\\perssonal\\BingaMasterPlan\\shapefiles\\Water Points\\Water Points.shp" }, "geometry": { "type": "Point", "coordinates": [ 27.554665041000078, -17.912258556999973 ] } },
{ "type": "Feature", "properties": { "name": "Tusumpuke", "ward": "11", "village": "Makamba", "description": "Fully Functional", "imgURL": null, "layer": null, "path": "D:\\perssonal\\BingaMasterPlan\\shapefiles\\Water Points\\Water Points.shp" }, "geometry": { "type": "Point", "coordinates": [ 27.521369, -17.914324818999944 ] } },
{ "type": "Feature", "properties": { "name": "Manciiningi Water Spring Two", "ward": "11", "village": "Njobola", "description": "Fully Functional", "imgURL": null, "layer": null, "path": "D:\\perssonal\\BingaMasterPlan\\shapefiles\\Water Points\\Water Points.shp" }, "geometry": { "type": "Point", "coordinates": [ 27.50833314700003, -17.959972578999952 ] } },
{ "type": "Feature", "properties": { "name": "Siamufwe", "ward": "11", "village": "Kalombe", "description": "Fully Functional", "imgURL": null, "layer": null, "path": "D:\\perssonal\\BingaMasterPlan\\shapefiles\\Water Points\\Water Points.shp" }, "geometry": { "type": "Point", "coordinates": [ 27.479005936000078, -17.889055781999957 ] } },
{ "type": "Feature", "properties": { "name": "Takotapi Nutrition Garden", "ward": "11", "village": "Siamwenya", "description": "Non-Functional", "imgURL": null, "layer": null, "path": "D:\\perssonal\\BingaMasterPlan\\shapefiles\\Water Points\\Water Points.shp" }, "geometry": { "type": "Point", "coordinates": [ 27.525539450000053, -17.898755704999928 ] } },
{ "type": "Feature", "properties": { "name": "Sianfonyo Borehole.", "ward": "11", "village": "Siamwenya", "description": "Non-Functional", "imgURL": null, "layer": null, "path": "D:\\perssonal\\BingaMasterPlan\\shapefiles\\Water Points\\Water Points.shp" }, "geometry": { "type": "Point", "coordinates": [ 27.527874076000046, -17.90408406399996 ] } },
{ "type": "Feature", "properties": { "name": "Malala Nutrition Garden", "ward": "11", "village": null, "description": "Fully Functional", "imgURL": null, "layer": null, "path": "D:\\perssonal\\BingaMasterPlan\\shapefiles\\Water Points\\Water Points.shp" }, "geometry": { "type": "Point", "coordinates": [ 27.551044780000041, -17.914962863999961 ] } },
{ "type": "Feature", "properties": { "name": "Twinkilile Anembo Nutrition Garden", "ward": "11", "village": "Sivwala", "description": "Non-Functional", "imgURL": null, "layer": null, "path": "D:\\perssonal\\BingaMasterPlan\\shapefiles\\Water Points\\Water Points.shp" }, "geometry": { "type": "Point", "coordinates": [ 27.518528527000058, -17.892750035999939 ] } },
{ "type": "Feature", "properties": { "name": "Kalombe 1 Nutrition", "ward": "11", "village": "Kalombe", "description": "Partially Functional", "imgURL": null, "layer": null, "path": "D:\\perssonal\\BingaMasterPlan\\shapefiles\\Water Points\\Water Points.shp" }, "geometry": { "type": "Point", "coordinates": [ 27.478906422000023, -17.885269789999938 ] } },
{ "type": "Feature", "properties": { "name": "Chamunzi", "ward": "3", "village": "Chisale", "description": "Fully Functional", "imgURL": null, "layer": null, "path": "D:\\perssonal\\BingaMasterPlan\\shapefiles\\Water Points\\Water Points.shp" }, "geometry": { "type": "Point", "coordinates": [ 27.990732449000063, -17.496262404999982 ] } },
{ "type": "Feature", "properties": { "name": "Gonta", "ward": "11", "village": "Lubu 4", "description": "Fully Functional", "imgURL": null, "layer": null, "path": "D:\\perssonal\\BingaMasterPlan\\shapefiles\\Water Points\\Water Points.shp" }, "geometry": { "type": "Point", "coordinates": [ 27.553960783000036, -17.911318817999927 ] } },
{ "type": "Feature", "properties": { "name": "Beenzu", "ward": "3", "village": "Chilamba", "description": "Non-Functional", "imgURL": null, "layer": null, "path": "D:\\perssonal\\BingaMasterPlan\\shapefiles\\Water Points\\Water Points.shp" }, "geometry": { "type": "Point", "coordinates": [ 27.963794450000023, -17.519925703999945 ] } },
{ "type": "Feature", "properties": { "name": "Tujatile Amwi", "ward": "11", "village": "Mansenya", "description": "Partially Functional", "imgURL": null, "layer": null, "path": "D:\\perssonal\\BingaMasterPlan\\shapefiles\\Water Points\\Water Points.shp" }, "geometry": { "type": "Point", "coordinates": [ 27.461214702000063, -17.923611306999931 ] } },
{ "type": "Feature", "properties": { "name": "Siakulipa", "ward": "11", "village": "Kalombe", "description": "Non-Functional", "imgURL": null, "layer": null, "path": "D:\\perssonal\\BingaMasterPlan\\shapefiles\\Water Points\\Water Points.shp" }, "geometry": { "type": "Point", "coordinates": [ 27.473719109000058, -17.885042770999974 ] } },
{ "type": "Feature", "properties": { "name": "Siamangala", "ward": "11", "village": "Kalombe", "description": "Partially Functional", "imgURL": null, "layer": null, "path": "D:\\perssonal\\BingaMasterPlan\\shapefiles\\Water Points\\Water Points.shp" }, "geometry": { "type": "Point", "coordinates": [ 27.473137756000028, -17.89191109099994 ] } },
{ "type": "Feature", "properties": { "name": "Masinja", "ward": "11", "village": "Kalombe", "description": "Partially Functional", "imgURL": null, "layer": null, "path": "D:\\perssonal\\BingaMasterPlan\\shapefiles\\Water Points\\Water Points.shp" }, "geometry": { "type": "Point", "coordinates": [ 27.461485344000039, -17.897374954999975 ] } },
{ "type": "Feature", "properties": { "name": "Katapila", "ward": "11", "village": "Njobola", "description": "Collapsed / Abandoned", "imgURL": null, "layer": null, "path": "D:\\perssonal\\BingaMasterPlan\\shapefiles\\Water Points\\Water Points.shp" }, "geometry": { "type": "Point", "coordinates": [ 27.494075586000065, -17.975828390999936 ] } },
{ "type": "Feature", "properties": { "name": "Clean Water Nutrition Garden", "ward": "11", "village": null, "description": "Fully Functional", "imgURL": null, "layer": null, "path": "D:\\perssonal\\BingaMasterPlan\\shapefiles\\Water Points\\Water Points.shp" }, "geometry": { "type": "Point", "coordinates": [ 27.500930717000074, -17.951409725999952 ] } },
{ "type": "Feature", "properties": { "name": "Bubotu  Garden", "ward": "11", "village": "Sivwala", "description": "Non-Functional", "imgURL": null, "layer": null, "path": "D:\\perssonal\\BingaMasterPlan\\shapefiles\\Water Points\\Water Points.shp" }, "geometry": { "type": "Point", "coordinates": [ 27.496824104000041, -17.893841192999957 ] } },
{ "type": "Feature", "properties": { "name": "Mapanga", "ward": "11", "village": "Samson", "description": "Partially Functional", "imgURL": null, "layer": null, "path": "D:\\perssonal\\BingaMasterPlan\\shapefiles\\Water Points\\Water Points.shp" }, "geometry": { "type": "Point", "coordinates": [ 27.48342539500004, -17.875604051999971 ] } },
{ "type": "Feature", "properties": { "name": "Mundondo Nutrition", "ward": "11", "village": "Samson", "description": "Non-Functional", "imgURL": null, "layer": null, "path": "D:\\perssonal\\BingaMasterPlan\\shapefiles\\Water Points\\Water Points.shp" }, "geometry": { "type": "Point", "coordinates": [ 27.481742143000076, -17.874560358999929 ] } },
{ "type": "Feature", "properties": { "name": "Masikili Nutrition", "ward": "11", "village": "Samson", "description": "Collapsed / Abandoned", "imgURL": null, "layer": null, "path": "D:\\perssonal\\BingaMasterPlan\\shapefiles\\Water Points\\Water Points.shp" }, "geometry": { "type": "Point", "coordinates": [ 27.485892178000029, -17.890685230999964 ] } },
{ "type": "Feature", "properties": { "name": "Kantibi", "ward": "11", "village": "Sivwala", "description": "Partially Functional", "imgURL": null, "layer": null, "path": "D:\\perssonal\\BingaMasterPlan\\shapefiles\\Water Points\\Water Points.shp" }, "geometry": { "type": "Point", "coordinates": [ 27.517534940000075, -17.892175794999957 ] } },
{ "type": "Feature", "properties": { "name": "Siantibule", "ward": "11", "village": "Siantibule", "description": "Fully Functional", "imgURL": null, "layer": null, "path": "D:\\perssonal\\BingaMasterPlan\\shapefiles\\Water Points\\Water Points.shp" }, "geometry": { "type": "Point", "coordinates": [ 27.50052665100003, -17.919877214999929 ] } },
{ "type": "Feature", "properties": { "name": "Lususumpuko", "ward": "11", "village": "Makamba", "description": "Non-Functional", "imgURL": null, "layer": null, "path": "D:\\perssonal\\BingaMasterPlan\\shapefiles\\Water Points\\Water Points.shp" }, "geometry": { "type": "Point", "coordinates": [ 27.519310831000041, -17.923429798999962 ] } },
{ "type": "Feature", "properties": { "name": "Manguzu  Esu", "ward": "11", "village": "Makamba", "description": "Fully Functional", "imgURL": null, "layer": null, "path": "D:\\perssonal\\BingaMasterPlan\\shapefiles\\Water Points\\Water Points.shp" }, "geometry": { "type": "Point", "coordinates": [ 27.522099740000044, -17.913520954999967 ] } },
{ "type": "Feature", "properties": { "name": "Cinkomba", "ward": "11", "village": "Siantibule", "description": "Partially Functional", "imgURL": null, "layer": null, "path": "D:\\perssonal\\BingaMasterPlan\\shapefiles\\Water Points\\Water Points.shp" }, "geometry": { "type": "Point", "coordinates": [ 27.507647760000054, -17.913240188999964 ] } },
{ "type": "Feature", "properties": { "name": "Well No 3", "ward": "11", "village": "Makamba", "description": "Fully Functional", "imgURL": null, "layer": null, "path": "D:\\perssonal\\BingaMasterPlan\\shapefiles\\Water Points\\Water Points.shp" }, "geometry": { "type": "Point", "coordinates": [ 27.517234869000049, -17.919042907999938 ] } },
{ "type": "Feature", "properties": { "name": "Mumfulibulimbo", "ward": "11", "village": "Siantibule", "description": "Fully Functional", "imgURL": null, "layer": null, "path": "D:\\perssonal\\BingaMasterPlan\\shapefiles\\Water Points\\Water Points.shp" }, "geometry": { "type": "Point", "coordinates": [ 27.504592473000059, -17.925983949999932 ] } },
{ "type": "Feature", "properties": { "name": "Number 1 Deep  Well", "ward": "11", "village": "Siantibule", "description": "Partially Functional", "imgURL": null, "layer": null, "path": "D:\\perssonal\\BingaMasterPlan\\shapefiles\\Water Points\\Water Points.shp" }, "geometry": { "type": "Point", "coordinates": [ 27.491367359000037, -17.901975390999951 ] } },
{ "type": "Feature", "properties": { "name": "Siansangu", "ward": "11", "village": "Siantibule", "description": "Fully Functional", "imgURL": null, "layer": null, "path": "D:\\perssonal\\BingaMasterPlan\\shapefiles\\Water Points\\Water Points.shp" }, "geometry": { "type": "Point", "coordinates": [ 27.530410809000045, -17.950072148999936 ] } },
{ "type": "Feature", "properties": { "name": "Siabbuci Well", "ward": "11", "village": "Siantibule", "description": "Fully Functional", "imgURL": null, "layer": null, "path": "D:\\perssonal\\BingaMasterPlan\\shapefiles\\Water Points\\Water Points.shp" }, "geometry": { "type": "Point", "coordinates": [ 27.510789904000035, -17.922194298999955 ] } },
{ "type": "Feature", "properties": { "name": "Mankononga", "ward": "11", "village": "Siantibule", "description": "Partially Functional", "imgURL": null, "layer": null, "path": "D:\\perssonal\\BingaMasterPlan\\shapefiles\\Water Points\\Water Points.shp" }, "geometry": { "type": "Point", "coordinates": [ 27.506363602000079, -17.915288741999973 ] } },
{ "type": "Feature", "properties": { "name": "Ngeenje", "ward": "11", "village": "Makamba", "description": "Fully Functional", "imgURL": null, "layer": null, "path": "D:\\perssonal\\BingaMasterPlan\\shapefiles\\Water Points\\Water Points.shp" }, "geometry": { "type": "Point", "coordinates": [ 27.516459642000029, -17.921541617999935 ] } },
{ "type": "Feature", "properties": { "name": "Siacinego", "ward": "11", "village": "Siantibule", "description": "Non-Functional", "imgURL": null, "layer": null, "path": "D:\\perssonal\\BingaMasterPlan\\shapefiles\\Water Points\\Water Points.shp" }, "geometry": { "type": "Point", "coordinates": [ 27.489231545000052, -17.907258311999954 ] } },
{ "type": "Feature", "properties": { "name": "Njube", "ward": "11", "village": "Makamba", "description": "Partially Functional", "imgURL": null, "layer": null, "path": "D:\\perssonal\\BingaMasterPlan\\shapefiles\\Water Points\\Water Points.shp" }, "geometry": { "type": "Point", "coordinates": [ 27.526714440000035, -17.933231264999961 ] } },
{ "type": "Feature", "properties": { "name": "Makamba  Well No 1", "ward": "11", "village": "Makamba", "description": "Fully Functional", "imgURL": null, "layer": null, "path": "D:\\perssonal\\BingaMasterPlan\\shapefiles\\Water Points\\Water Points.shp" }, "geometry": { "type": "Point", "coordinates": [ 27.528581644000042, -17.92134604599994 ] } },
{ "type": "Feature", "properties": { "name": "Samba", "ward": "11", "village": "Makamba", "description": "Fully Functional", "imgURL": null, "layer": null, "path": "D:\\perssonal\\BingaMasterPlan\\shapefiles\\Water Points\\Water Points.shp" }, "geometry": { "type": "Point", "coordinates": [ 27.532360084000061, -17.933309203999954 ] } },
{ "type": "Feature", "properties": { "name": "Siakobbola 3", "ward": "15", "village": "Ndola", "description": "Partially Functional", "imgURL": null, "layer": null, "path": "D:\\perssonal\\BingaMasterPlan\\shapefiles\\Water Points\\Water Points.shp" }, "geometry": { "type": "Point", "coordinates": [ 27.558896, -17.963559878999945 ] } },
{ "type": "Feature", "properties": { "name": "Sialondwe", "ward": "15", "village": "Ndola", "description": "Partially Functional", "imgURL": null, "layer": null, "path": "D:\\perssonal\\BingaMasterPlan\\shapefiles\\Water Points\\Water Points.shp" }, "geometry": { "type": "Point", "coordinates": [ 27.564175867000074, -17.957842196999934 ] } },
{ "type": "Feature", "properties": { "name": "Siansali Dip", "ward": "15", "village": "Ndola", "description": "Fully Functional", "imgURL": null, "layer": null, "path": "D:\\perssonal\\BingaMasterPlan\\shapefiles\\Water Points\\Water Points.shp" }, "geometry": { "type": "Point", "coordinates": [ 27.571311975000071, -17.95555828199997 ] } },
{ "type": "Feature", "properties": { "name": "Siakobbola 1", "ward": "15", "village": "Ndola", "description": "Non-Functional", "imgURL": null, "layer": null, "path": "D:\\perssonal\\BingaMasterPlan\\shapefiles\\Water Points\\Water Points.shp" }, "geometry": { "type": "Point", "coordinates": [ 27.554714894000028, -17.974550417999978 ] } },
{ "type": "Feature", "properties": { "name": "Tukazyanye", "ward": "15", "village": "Ndola", "description": "Fully Functional", "imgURL": null, "layer": null, "path": "D:\\perssonal\\BingaMasterPlan\\shapefiles\\Water Points\\Water Points.shp" }, "geometry": { "type": "Point", "coordinates": [ 27.530408578000049, -17.950064188999932 ] } },
{ "type": "Feature", "properties": { "name": "Ndola 2", "ward": "15", "village": "Ndola", "description": "Fully Functional", "imgURL": null, "layer": null, "path": "D:\\perssonal\\BingaMasterPlan\\shapefiles\\Water Points\\Water Points.shp" }, "geometry": { "type": "Point", "coordinates": [ 27.569556048000038, -17.962643973999946 ] } },
{ "type": "Feature", "properties": { "name": "Nsungwale", "ward": "15", "village": "Ndola", "description": "Fully Functional", "imgURL": null, "layer": null, "path": "D:\\perssonal\\BingaMasterPlan\\shapefiles\\Water Points\\Water Points.shp" }, "geometry": { "type": "Point", "coordinates": [ 27.534573003000048, -17.96846953599993 ] } },
{ "type": "Feature", "properties": { "name": "Kariangwe", "ward": "15", "village": "Ndola", "description": "Non-Functional", "imgURL": null, "layer": null, "path": "D:\\perssonal\\BingaMasterPlan\\shapefiles\\Water Points\\Water Points.shp" }, "geometry": { "type": "Point", "coordinates": [ 27.543749090000063, -17.967799648999971 ] } },
{ "type": "Feature", "properties": { "name": "Kariangwe Secondary", "ward": "15", "village": "Ndola", "description": "Non-Functional", "imgURL": null, "layer": null, "path": "D:\\perssonal\\BingaMasterPlan\\shapefiles\\Water Points\\Water Points.shp" }, "geometry": { "type": "Point", "coordinates": [ 27.543781878000061, -17.968014445999927 ] } },
{ "type": "Feature", "properties": { "name": "Chikandangombe", "ward": "15", "village": "Manseme", "description": "Non-Functional", "imgURL": null, "layer": null, "path": "D:\\perssonal\\BingaMasterPlan\\shapefiles\\Water Points\\Water Points.shp" }, "geometry": { "type": "Point", "coordinates": [ 27.451466950000054, -17.998666972999956 ] } },
{ "type": "Feature", "properties": { "name": "Mazimbwa", "ward": "15", "village": "Manseme", "description": "Non-Functional", "imgURL": null, "layer": null, "path": "D:\\perssonal\\BingaMasterPlan\\shapefiles\\Water Points\\Water Points.shp" }, "geometry": { "type": "Point", "coordinates": [ 27.439286444000061, -17.982594511999935 ] } },
{ "type": "Feature", "properties": { "name": "Roman Catholic", "ward": "15", "village": "Ndola", "description": "Fully Functional", "imgURL": null, "layer": null, "path": "D:\\perssonal\\BingaMasterPlan\\shapefiles\\Water Points\\Water Points.shp" }, "geometry": { "type": "Point", "coordinates": [ 27.531241734000048, -17.970967046999931 ] } },
{ "type": "Feature", "properties": { "name": "Chikali 2", "ward": "15", "village": "Manseme", "description": "Non-Functional", "imgURL": null, "layer": null, "path": "D:\\perssonal\\BingaMasterPlan\\shapefiles\\Water Points\\Water Points.shp" }, "geometry": { "type": "Point", "coordinates": [ 27.461528972000053, -18.006354322999982 ] } },
{ "type": "Feature", "properties": { "name": "Manunvwa 2", "ward": "15", "village": "Manseme", "description": "Fully Functional", "imgURL": null, "layer": null, "path": "D:\\perssonal\\BingaMasterPlan\\shapefiles\\Water Points\\Water Points.shp" }, "geometry": { "type": "Point", "coordinates": [ 27.483312988000023, -18.009364429999948 ] } },
{ "type": "Feature", "properties": { "name": "Mabanana 1", "ward": "15", "village": "Manseme", "description": "Non-Functional", "imgURL": null, "layer": null, "path": "D:\\perssonal\\BingaMasterPlan\\shapefiles\\Water Points\\Water Points.shp" }, "geometry": { "type": "Point", "coordinates": [ 27.445212228000059, -17.996251328999961 ] } },
{ "type": "Feature", "properties": { "name": "Kariangwe", "ward": "15", "village": "Ndola", "description": "Fully Functional", "imgURL": null, "layer": null, "path": "D:\\perssonal\\BingaMasterPlan\\shapefiles\\Water Points\\Water Points.shp" }, "geometry": { "type": "Point", "coordinates": [ 27.533740666000028, -17.972861359999968 ] } },
{ "type": "Feature", "properties": { "name": "Kapolopolo 1", "ward": "15", "village": "Manseme", "description": "Fully Functional", "imgURL": null, "layer": null, "path": "D:\\perssonal\\BingaMasterPlan\\shapefiles\\Water Points\\Water Points.shp" }, "geometry": { "type": "Point", "coordinates": [ 27.54281702000003, -17.984130660999938 ] } },
{ "type": "Feature", "properties": { "name": "Kariangwe", "ward": "15", "village": "Ndola", "description": "Non-Functional", "imgURL": null, "layer": null, "path": "D:\\perssonal\\BingaMasterPlan\\shapefiles\\Water Points\\Water Points.shp" }, "geometry": { "type": "Point", "coordinates": [ 27.543675516000064, -17.968136541999968 ] } },
{ "type": "Feature", "properties": { "name": "Makula 1", "ward": "15", "village": "Manseme", "description": "Non-Functional", "imgURL": null, "layer": null, "path": "D:\\perssonal\\BingaMasterPlan\\shapefiles\\Water Points\\Water Points.shp" }, "geometry": { "type": "Point", "coordinates": [ 27.465502440000023, -18.002121031999934 ] } },
{ "type": "Feature", "properties": { "name": "Chikomba 1", "ward": "15", "village": "Manseme", "description": "Fully Functional", "imgURL": null, "layer": null, "path": "D:\\perssonal\\BingaMasterPlan\\shapefiles\\Water Points\\Water Points.shp" }, "geometry": { "type": "Point", "coordinates": [ 27.528558058000044, -17.98020841999994 ] } },
{ "type": "Feature", "properties": { "name": "Manzimbwa", "ward": "15", "village": "Manseme", "description": "Non-Functional", "imgURL": null, "layer": null, "path": "D:\\perssonal\\BingaMasterPlan\\shapefiles\\Water Points\\Water Points.shp" }, "geometry": { "type": "Point", "coordinates": [ 27.439602730000047, -17.967036096999948 ] } },
{ "type": "Feature", "properties": { "name": "Masanta 1", "ward": "15", "village": "Manseme", "description": "Non-Functional", "imgURL": null, "layer": null, "path": "D:\\perssonal\\BingaMasterPlan\\shapefiles\\Water Points\\Water Points.shp" }, "geometry": { "type": "Point", "coordinates": [ 27.471028785000044, -18.015929705999952 ] } },
{ "type": "Feature", "properties": { "name": "Kapolopolo 2", "ward": "15", "village": "Manseme", "description": "Fully Functional", "imgURL": null, "layer": null, "path": "D:\\perssonal\\BingaMasterPlan\\shapefiles\\Water Points\\Water Points.shp" }, "geometry": { "type": "Point", "coordinates": [ 27.525382428000057, -17.976500921999957 ] } },
{ "type": "Feature", "properties": { "name": "Lwale 1", "ward": "15", "village": "Manseme", "description": "Collapsed / Abandoned", "imgURL": null, "layer": null, "path": "D:\\perssonal\\BingaMasterPlan\\shapefiles\\Water Points\\Water Points.shp" }, "geometry": { "type": "Point", "coordinates": [ 27.505783306000069, -17.974556007999979 ] } },
{ "type": "Feature", "properties": { "name": "Twalumba", "ward": "15", "village": "Chilundu", "description": "Fully Functional", "imgURL": null, "layer": null, "path": "D:\\perssonal\\BingaMasterPlan\\shapefiles\\Water Points\\Water Points.shp" }, "geometry": { "type": "Point", "coordinates": [ 27.507761194000068, -17.978105746999972 ] } },
{ "type": "Feature", "properties": { "name": "Chinkomba 2", "ward": "15", "village": "Manseme", "description": "Fully Functional", "imgURL": null, "layer": null, "path": "D:\\perssonal\\BingaMasterPlan\\shapefiles\\Water Points\\Water Points.shp" }, "geometry": { "type": "Point", "coordinates": [ 27.523309867000023, -17.975304454999957 ] } },
{ "type": "Feature", "properties": { "name": "Simudyedu", "ward": "15", "village": "Manseme", "description": "Collapsed / Abandoned", "imgURL": null, "layer": null, "path": "D:\\perssonal\\BingaMasterPlan\\shapefiles\\Water Points\\Water Points.shp" }, "geometry": { "type": "Point", "coordinates": [ 27.533832766000046, -17.984099801999946 ] } },
{ "type": "Feature", "properties": { "name": "Manunvwa 3 /dias", "ward": "15", "village": "Manseme", "description": "Partially Functional", "imgURL": null, "layer": null, "path": "D:\\perssonal\\BingaMasterPlan\\shapefiles\\Water Points\\Water Points.shp" }, "geometry": { "type": "Point", "coordinates": [ 27.497218348000047, -18.007006580999928 ] } },
{ "type": "Feature", "properties": { "name": "Makula 2", "ward": "15", "village": "Manseme", "description": "Non-Functional", "imgURL": null, "layer": null, "path": "D:\\perssonal\\BingaMasterPlan\\shapefiles\\Water Points\\Water Points.shp" }, "geometry": { "type": "Point", "coordinates": [ 27.465372903000059, -18.001972887999955 ] } },
{ "type": "Feature", "properties": { "name": "Manunvwa 1", "ward": "15", "village": "Manseme", "description": "Non-Functional", "imgURL": null, "layer": null, "path": "D:\\perssonal\\BingaMasterPlan\\shapefiles\\Water Points\\Water Points.shp" }, "geometry": { "type": "Point", "coordinates": [ 27.483619798000063, -18.006990663999943 ] } },
{ "type": "Feature", "properties": { "name": "Kariangwe Mission", "ward": "15", "village": "Ndola", "description": "Fully Functional", "imgURL": null, "layer": null, "path": "D:\\perssonal\\BingaMasterPlan\\shapefiles\\Water Points\\Water Points.shp" }, "geometry": { "type": "Point", "coordinates": [ 27.532383609000078, -17.969809823999981 ] } },
{ "type": "Feature", "properties": { "name": "Kanjini", "ward": "15", "village": "Manseme", "description": "Fully Functional", "imgURL": null, "layer": null, "path": "D:\\perssonal\\BingaMasterPlan\\shapefiles\\Water Points\\Water Points.shp" }, "geometry": { "type": "Point", "coordinates": [ 27.529662307000024, -17.979990507999958 ] } },
{ "type": "Feature", "properties": { "name": "Chikali 1", "ward": "15", "village": "Manseme", "description": "Non-Functional", "imgURL": null, "layer": null, "path": "D:\\perssonal\\BingaMasterPlan\\shapefiles\\Water Points\\Water Points.shp" }, "geometry": { "type": "Point", "coordinates": [ 27.458383588000061, -18.003065754999966 ] } },
{ "type": "Feature", "properties": { "name": "Air Droom", "ward": "15", "village": "Manseme", "description": "Collapsed / Abandoned", "imgURL": null, "layer": null, "path": "D:\\perssonal\\BingaMasterPlan\\shapefiles\\Water Points\\Water Points.shp" }, "geometry": { "type": "Point", "coordinates": [ 27.494077643000026, -17.975843640999926 ] } },
{ "type": "Feature", "properties": { "name": "Siampikwa", "ward": "15", "village": "Manseme", "description": "Non-Functional", "imgURL": null, "layer": null, "path": "D:\\perssonal\\BingaMasterPlan\\shapefiles\\Water Points\\Water Points.shp" }, "geometry": { "type": "Point", "coordinates": [ 27.542401280000036, -17.972952653999982 ] } },
{ "type": "Feature", "properties": { "name": "Kariangwe Community Centre", "ward": "15", "village": "Ndola", "description": "Non-Functional", "imgURL": null, "layer": null, "path": "D:\\perssonal\\BingaMasterPlan\\shapefiles\\Water Points\\Water Points.shp" }, "geometry": { "type": "Point", "coordinates": [ 27.537729696000042, -17.968875662999949 ] } },
{ "type": "Feature", "properties": { "name": "Masanta 2", "ward": "15", "village": "Manseme", "description": "Partially Functional", "imgURL": null, "layer": null, "path": "D:\\perssonal\\BingaMasterPlan\\shapefiles\\Water Points\\Water Points.shp" }, "geometry": { "type": "Point", "coordinates": [ 27.468462389000024, -18.022015538999938 ] } },
{ "type": "Feature", "properties": { "name": "Tumulumbe", "ward": "15", "village": "Ndola", "description": "Non-Functional", "imgURL": null, "layer": null, "path": "D:\\perssonal\\BingaMasterPlan\\shapefiles\\Water Points\\Water Points.shp" }, "geometry": { "type": "Point", "coordinates": [ 27.544415466000032, -17.966337995999936 ] } },
{ "type": "Feature", "properties": { "name": "Mabanana 4", "ward": "15", "village": "Manseme", "description": "Collapsed / Abandoned", "imgURL": null, "layer": null, "path": "D:\\perssonal\\BingaMasterPlan\\shapefiles\\Water Points\\Water Points.shp" }, "geometry": { "type": "Point", "coordinates": [ 27.462928570000031, -17.994794855999942 ] } },
{ "type": "Feature", "properties": { "name": "Mabanana 2", "ward": "15", "village": "Manseme", "description": "Non-Functional", "imgURL": null, "layer": null, "path": "D:\\perssonal\\BingaMasterPlan\\shapefiles\\Water Points\\Water Points.shp" }, "geometry": { "type": "Point", "coordinates": [ 27.449006410000038, -17.989246455999933 ] } },
{ "type": "Feature", "properties": { "name": "Kabbenya", "ward": "15", "village": "Manseme", "description": "Fully Functional", "imgURL": null, "layer": null, "path": "D:\\perssonal\\BingaMasterPlan\\shapefiles\\Water Points\\Water Points.shp" }, "geometry": { "type": "Point", "coordinates": [ 27.437274901000023, -18.012650636999979 ] } },
{ "type": "Feature", "properties": { "name": "Chizarira", "ward": "15", "village": "Manseme", "description": "Fully Functional", "imgURL": null, "layer": null, "path": "D:\\perssonal\\BingaMasterPlan\\shapefiles\\Water Points\\Water Points.shp" }, "geometry": { "type": "Point", "coordinates": [ 27.49808605000004, -18.012972511999976 ] } },
{ "type": "Feature", "properties": { "name": "Lwale 2", "ward": "15", "village": "Manseme", "description": "Non-Functional", "imgURL": null, "layer": null, "path": "D:\\perssonal\\BingaMasterPlan\\shapefiles\\Water Points\\Water Points.shp" }, "geometry": { "type": "Point", "coordinates": [ 27.506869585000061, -17.979590292999944 ] } },
{ "type": "Feature", "properties": { "name": "ZINWA", "ward": "15", "village": "Ndola", "description": "Non-Functional", "imgURL": null, "layer": null, "path": "D:\\perssonal\\BingaMasterPlan\\shapefiles\\Water Points\\Water Points.shp" }, "geometry": { "type": "Point", "coordinates": [ 27.558588929000052, -17.953644592999979 ] } },
{ "type": "Feature", "properties": { "name": "Mabanana 3", "ward": "15", "village": "Manseme", "description": "Non-Functional", "imgURL": null, "layer": null, "path": "D:\\perssonal\\BingaMasterPlan\\shapefiles\\Water Points\\Water Points.shp" }, "geometry": { "type": "Point", "coordinates": [ 27.444435039000041, -17.99629373199997 ] } },
{ "type": "Feature", "properties": { "name": "Kapolopolo 3", "ward": "15", "village": "Manseme", "description": "Fully Functional", "imgURL": null, "layer": null, "path": "D:\\perssonal\\BingaMasterPlan\\shapefiles\\Water Points\\Water Points.shp" }, "geometry": { "type": "Point", "coordinates": [ 27.516074342000024, -17.976456674999952 ] } },
{ "type": "Feature", "properties": { "name": "Siakulima", "ward": "15", "village": "Manseme", "description": "Non-Functional", "imgURL": null, "layer": null, "path": "D:\\perssonal\\BingaMasterPlan\\shapefiles\\Water Points\\Water Points.shp" }, "geometry": { "type": "Point", "coordinates": [ 27.492231355000058, -18.002155479999942 ] } },
{ "type": "Feature", "properties": { "name": "Makula 3", "ward": "15", "village": "Manseme", "description": "Collapsed / Abandoned", "imgURL": null, "layer": null, "path": "D:\\perssonal\\BingaMasterPlan\\shapefiles\\Water Points\\Water Points.shp" }, "geometry": { "type": "Point", "coordinates": [ 27.471566410000037, -17.99892835299994 ] } },
{ "type": "Feature", "properties": { "name": "Ketamenda", "ward": "15", "village": "Ndola", "description": "Fully Functional", "imgURL": null, "layer": null, "path": "D:\\perssonal\\BingaMasterPlan\\shapefiles\\Water Points\\Water Points.shp" }, "geometry": { "type": "Point", "coordinates": [ 27.551212013000054, -17.956967750999979 ] } },
{ "type": "Feature", "properties": { "name": "Ndola 1", "ward": "15", "village": "Ndola", "description": "Collapsed / Abandoned", "imgURL": null, "layer": null, "path": "D:\\perssonal\\BingaMasterPlan\\shapefiles\\Water Points\\Water Points.shp" }, "geometry": { "type": "Point", "coordinates": [ 27.569084717000067, -17.965274732999944 ] } },
{ "type": "Feature", "properties": { "name": "Keba 1/ntyabile", "ward": "15", "village": "Ndola", "description": "Fully Functional", "imgURL": null, "layer": null, "path": "D:\\perssonal\\BingaMasterPlan\\shapefiles\\Water Points\\Water Points.shp" }, "geometry": { "type": "Point", "coordinates": [ 27.565593387000035, -17.954287442999942 ] } },
{ "type": "Feature", "properties": { "name": "Chigani", "ward": "15", "village": "Ndola", "description": "Fully Functional", "imgURL": null, "layer": null, "path": "D:\\perssonal\\BingaMasterPlan\\shapefiles\\Water Points\\Water Points.shp" }, "geometry": { "type": "Point", "coordinates": [ 27.546754164000049, -17.965799770999979 ] } },
{ "type": "Feature", "properties": { "name": "Gonta", "ward": "15", "village": "Ndola", "description": "Fully Functional", "imgURL": null, "layer": null, "path": "D:\\perssonal\\BingaMasterPlan\\shapefiles\\Water Points\\Water Points.shp" }, "geometry": { "type": "Point", "coordinates": [ 27.543823910000071, -17.946401846999947 ] } },
{ "type": "Feature", "properties": { "name": "Chabwidi 2", "ward": "2", "village": "Chabwidi", "description": "Fully Functional", "imgURL": null, "layer": null, "path": "D:\\perssonal\\BingaMasterPlan\\shapefiles\\Water Points\\Water Points.shp" }, "geometry": { "type": "Point", "coordinates": [ 28.074680658000034, -17.494620451999936 ] } },
{ "type": "Feature", "properties": { "name": "Chabwidi 1", "ward": "2", "village": "Chabwidi", "description": "Fully Functional", "imgURL": null, "layer": null, "path": "D:\\perssonal\\BingaMasterPlan\\shapefiles\\Water Points\\Water Points.shp" }, "geometry": { "type": "Point", "coordinates": [ 28.063536412000076, -17.505856218999952 ] } },
{ "type": "Feature", "properties": { "name": "Kucito", "ward": "15", "village": "Mbelele", "description": "Partially Functional", "imgURL": null, "layer": null, "path": "D:\\perssonal\\BingaMasterPlan\\shapefiles\\Water Points\\Water Points.shp" }, "geometry": { "type": "Point", "coordinates": [ 27.572857648000024, -17.925796971999944 ] } },
{ "type": "Feature", "properties": { "name": "Siabwele", "ward": "15", "village": "Mbelele", "description": "Non-Functional", "imgURL": null, "layer": null, "path": "D:\\perssonal\\BingaMasterPlan\\shapefiles\\Water Points\\Water Points.shp" }, "geometry": { "type": "Point", "coordinates": [ 27.568673687000057, -17.931173856999976 ] } },
{ "type": "Feature", "properties": { "name": "Bbombo", "ward": "15", "village": "Mbelele", "description": "Collapsed / Abandoned", "imgURL": null, "layer": null, "path": "D:\\perssonal\\BingaMasterPlan\\shapefiles\\Water Points\\Water Points.shp" }, "geometry": { "type": "Point", "coordinates": [ 27.568861606000041, -17.929849359999935 ] } },
{ "type": "Feature", "properties": { "name": "Chalyimika Investment", "ward": "15", "village": "Ndola", "description": "Non-Functional", "imgURL": null, "layer": null, "path": "D:\\perssonal\\BingaMasterPlan\\shapefiles\\Water Points\\Water Points.shp" }, "geometry": { "type": "Point", "coordinates": [ 27.545131222000066, -17.96641980499993 ] } },
{ "type": "Feature", "properties": { "name": "Dambwa", "ward": "15", "village": "Mbelele", "description": "Fully Functional", "imgURL": null, "layer": null, "path": "D:\\perssonal\\BingaMasterPlan\\shapefiles\\Water Points\\Water Points.shp" }, "geometry": { "type": "Point", "coordinates": [ 27.570833939000067, -17.943989221999971 ] } },
{ "type": "Feature", "properties": { "name": "Magani", "ward": "15", "village": "Mbelele", "description": "Fully Functional", "imgURL": null, "layer": null, "path": "D:\\perssonal\\BingaMasterPlan\\shapefiles\\Water Points\\Water Points.shp" }, "geometry": { "type": "Point", "coordinates": [ 27.591036788000054, -17.943610577999948 ] } },
{ "type": "Feature", "properties": { "name": "Sianyengele", "ward": "15", "village": "Mbelele", "description": "Non-Functional", "imgURL": null, "layer": null, "path": "D:\\perssonal\\BingaMasterPlan\\shapefiles\\Water Points\\Water Points.shp" }, "geometry": { "type": "Point", "coordinates": [ 27.574985192000042, -17.938043808999964 ] } },
{ "type": "Feature", "properties": { "name": "Lungwalala Irrigation", "ward": "15", "village": "Mbelele", "description": "Non-Functional", "imgURL": null, "layer": null, "path": "D:\\perssonal\\BingaMasterPlan\\shapefiles\\Water Points\\Water Points.shp" }, "geometry": { "type": "Point", "coordinates": [ 27.554594243000054, -17.938876387999983 ] } },
{ "type": "Feature", "properties": { "name": "Nsangano", "ward": "15", "village": "Mbelele", "description": "Collapsed / Abandoned", "imgURL": null, "layer": null, "path": "D:\\perssonal\\BingaMasterPlan\\shapefiles\\Water Points\\Water Points.shp" }, "geometry": { "type": "Point", "coordinates": [ 27.582507450000037, -17.929068832999974 ] } },
{ "type": "Feature", "properties": { "name": "Sikede", "ward": "15", "village": "Mbelele", "description": "Non-Functional", "imgURL": null, "layer": null, "path": "D:\\perssonal\\BingaMasterPlan\\shapefiles\\Water Points\\Water Points.shp" }, "geometry": { "type": "Point", "coordinates": [ 27.563332269000057, -17.923813218999953 ] } },
{ "type": "Feature", "properties": { "name": "Gentleman", "ward": "15", "village": "Mbelele", "description": "Fully Functional", "imgURL": null, "layer": null, "path": "D:\\perssonal\\BingaMasterPlan\\shapefiles\\Water Points\\Water Points.shp" }, "geometry": { "type": "Point", "coordinates": [ 27.580982990000052, -17.936460128999954 ] } },
{ "type": "Feature", "properties": { "name": "Siankwede", "ward": "15", "village": "Mbelele", "description": "Non-Functional", "imgURL": null, "layer": null, "path": "D:\\perssonal\\BingaMasterPlan\\shapefiles\\Water Points\\Water Points.shp" }, "geometry": { "type": "Point", "coordinates": [ 27.582493032000059, -17.936102333999941 ] } },
{ "type": "Feature", "properties": { "name": "Nsangano", "ward": "15", "village": "Mbelele", "description": "Partially Functional", "imgURL": null, "layer": null, "path": "D:\\perssonal\\BingaMasterPlan\\shapefiles\\Water Points\\Water Points.shp" }, "geometry": { "type": "Point", "coordinates": [ 27.583239506000041, -17.930231766999952 ] } },
{ "type": "Feature", "properties": { "name": "Kalo", "ward": "15", "village": "Mbelele", "description": "Fully Functional", "imgURL": null, "layer": null, "path": "D:\\perssonal\\BingaMasterPlan\\shapefiles\\Water Points\\Water Points.shp" }, "geometry": { "type": "Point", "coordinates": [ 27.580266863000077, -17.935768165999946 ] } },
{ "type": "Feature", "properties": { "name": "Siansali", "ward": "15", "village": "Mbelele", "description": "Non-Functional", "imgURL": null, "layer": null, "path": "D:\\perssonal\\BingaMasterPlan\\shapefiles\\Water Points\\Water Points.shp" }, "geometry": { "type": "Point", "coordinates": [ 27.574832006000065, -17.937703380999949 ] } },
{ "type": "Feature", "properties": { "name": "Masika", "ward": "15", "village": "Mbelele", "description": "Fully Functional", "imgURL": null, "layer": null, "path": "D:\\perssonal\\BingaMasterPlan\\shapefiles\\Water Points\\Water Points.shp" }, "geometry": { "type": "Point", "coordinates": [ 27.608371928000054, -17.931120397999962 ] } },
{ "type": "Feature", "properties": { "name": "Siambolo", "ward": "15", "village": "Mbelele", "description": "Fully Functional", "imgURL": null, "layer": null, "path": "D:\\perssonal\\BingaMasterPlan\\shapefiles\\Water Points\\Water Points.shp" }, "geometry": { "type": "Point", "coordinates": [ 27.610995095000078, -17.926094574999979 ] } },
{ "type": "Feature", "properties": { "name": "Siansali", "ward": "15", "village": "Mbelele", "description": "Non-Functional", "imgURL": null, "layer": null, "path": "D:\\perssonal\\BingaMasterPlan\\shapefiles\\Water Points\\Water Points.shp" }, "geometry": { "type": "Point", "coordinates": [ 27.574784872000066, -17.937181400999975 ] } },
{ "type": "Feature", "properties": { "name": "Mangoro", "ward": "2", "village": "Guteni", "description": "Non-Functional", "imgURL": null, "layer": null, "path": "D:\\perssonal\\BingaMasterPlan\\shapefiles\\Water Points\\Water Points.shp" }, "geometry": { "type": "Point", "coordinates": [ 28.036833031000072, -17.476276101999929 ] } },
{ "type": "Feature", "properties": { "name": "Tujatane Garden", "ward": "11", "village": "Kalombe 2", "description": "Partially Functional", "imgURL": null, "layer": null, "path": "D:\\perssonal\\BingaMasterPlan\\shapefiles\\Water Points\\Water Points.shp" }, "geometry": { "type": "Point", "coordinates": [ 27.481246354000064, -17.873804005999943 ] } },
{ "type": "Feature", "properties": { "name": "Zoyebe Garden", "ward": "11", "village": "Kalombe 2", "description": "Partially Functional", "imgURL": null, "layer": null, "path": "D:\\perssonal\\BingaMasterPlan\\shapefiles\\Water Points\\Water Points.shp" }, "geometry": { "type": "Point", "coordinates": [ 27.479875417000073, -17.875403544999926 ] } },
{ "type": "Feature", "properties": { "name": "Mulambe 2", "ward": "23", "village": "Mulambe", "description": "Fully Functional", "imgURL": null, "layer": null, "path": "D:\\perssonal\\BingaMasterPlan\\shapefiles\\Water Points\\Water Points.shp" }, "geometry": { "type": "Point", "coordinates": [ 28.204896873000052, -17.406844735999982 ] } },
{ "type": "Feature", "properties": { "name": "Mbwebwele", "ward": "3", "village": "Chilamba", "description": "Non-Functional", "imgURL": null, "layer": null, "path": "D:\\perssonal\\BingaMasterPlan\\shapefiles\\Water Points\\Water Points.shp" }, "geometry": { "type": "Point", "coordinates": [ 27.968749178000053, -17.558163947999958 ] } },
{ "type": "Feature", "properties": { "name": "Mukobola", "ward": "3", "village": "Nagangala", "description": "Fully Functional", "imgURL": null, "layer": null, "path": "D:\\perssonal\\BingaMasterPlan\\shapefiles\\Water Points\\Water Points.shp" }, "geometry": { "type": "Point", "coordinates": [ 28.012368804000062, -17.485597157999962 ] } },
{ "type": "Feature", "properties": { "name": "Potelekwa", "ward": "3", "village": "Nagangala", "description": "Fully Functional", "imgURL": null, "layer": null, "path": "D:\\perssonal\\BingaMasterPlan\\shapefiles\\Water Points\\Water Points.shp" }, "geometry": { "type": "Point", "coordinates": [ 27.989651354000046, -17.478653856999927 ] } },
{ "type": "Feature", "properties": { "name": "Chitanga", "ward": "23", "village": "Sikkumbu", "description": "Non-Functional", "imgURL": null, "layer": null, "path": "D:\\perssonal\\BingaMasterPlan\\shapefiles\\Water Points\\Water Points.shp" }, "geometry": { "type": "Point", "coordinates": [ 28.14474709600006, -17.495878533999928 ] } },
{ "type": "Feature", "properties": { "name": "Dambilo", "ward": "3", "village": "Chilamba", "description": "Collapsed / Abandoned", "imgURL": null, "layer": null, "path": "D:\\perssonal\\BingaMasterPlan\\shapefiles\\Water Points\\Water Points.shp" }, "geometry": { "type": "Point", "coordinates": [ 27.965410937000058, -17.54873680299994 ] } },
{ "type": "Feature", "properties": { "name": "Nakasawo", "ward": "3", "village": "Nagangala", "description": "Non-Functional", "imgURL": null, "layer": null, "path": "D:\\perssonal\\BingaMasterPlan\\shapefiles\\Water Points\\Water Points.shp" }, "geometry": { "type": "Point", "coordinates": [ 28.007698622000078, -17.481953978999968 ] } },
{ "type": "Feature", "properties": { "name": "Chakampa", "ward": "3", "village": "Chisale", "description": "Non-Functional", "imgURL": null, "layer": null, "path": "D:\\perssonal\\BingaMasterPlan\\shapefiles\\Water Points\\Water Points.shp" }, "geometry": { "type": "Point", "coordinates": [ 27.997999242000049, -17.516311479999956 ] } },
{ "type": "Feature", "properties": { "name": "Siachiponda", "ward": "3", "village": "Nsambala", "description": "Non-Functional", "imgURL": null, "layer": null, "path": "D:\\perssonal\\BingaMasterPlan\\shapefiles\\Water Points\\Water Points.shp" }, "geometry": { "type": "Point", "coordinates": [ 27.881364788000042, -17.496128606999946 ] } },
{ "type": "Feature", "properties": { "name": "Kasuntwe", "ward": "3", "village": "Nagangala", "description": "Fully Functional", "imgURL": null, "layer": null, "path": "D:\\perssonal\\BingaMasterPlan\\shapefiles\\Water Points\\Water Points.shp" }, "geometry": { "type": "Point", "coordinates": [ 27.981736894000051, -17.473006663999968 ] } },
{ "type": "Feature", "properties": { "name": "Bilichi", "ward": "3", "village": "Nagangala", "description": "Non-Functional", "imgURL": null, "layer": null, "path": "D:\\perssonal\\BingaMasterPlan\\shapefiles\\Water Points\\Water Points.shp" }, "geometry": { "type": "Point", "coordinates": [ 27.986508480000055, -17.481593981999936 ] } },
{ "type": "Feature", "properties": { "name": "Kasuntwe", "ward": "3", "village": "Nagangala", "description": "Fully Functional", "imgURL": null, "layer": null, "path": "D:\\perssonal\\BingaMasterPlan\\shapefiles\\Water Points\\Water Points.shp" }, "geometry": { "type": "Point", "coordinates": [ 27.98172816400006, -17.476654295999936 ] } },
{ "type": "Feature", "properties": { "name": "Magobbo", "ward": "3", "village": "Nagangala", "description": "Fully Functional", "imgURL": null, "layer": null, "path": "D:\\perssonal\\BingaMasterPlan\\shapefiles\\Water Points\\Water Points.shp" }, "geometry": { "type": "Point", "coordinates": [ 27.992847354000048, -17.54865112799996 ] } },
{ "type": "Feature", "properties": { "name": "Nacikala", "ward": "3", "village": "Chisale", "description": "Collapsed / Abandoned", "imgURL": null, "layer": null, "path": "D:\\perssonal\\BingaMasterPlan\\shapefiles\\Water Points\\Water Points.shp" }, "geometry": { "type": "Point", "coordinates": [ 27.991024089000064, -17.502849749999939 ] } },
{ "type": "Feature", "properties": { "name": "Siankwesya", "ward": "3", "village": "Nagangala", "description": "Non-Functional", "imgURL": null, "layer": null, "path": "D:\\perssonal\\BingaMasterPlan\\shapefiles\\Water Points\\Water Points.shp" }, "geometry": { "type": "Point", "coordinates": [ 27.992117579000023, -17.477739564999979 ] } },
{ "type": "Feature", "properties": { "name": "Magobbo", "ward": "3", "village": "Nagangala", "description": "Fully Functional", "imgURL": null, "layer": null, "path": "D:\\perssonal\\BingaMasterPlan\\shapefiles\\Water Points\\Water Points.shp" }, "geometry": { "type": "Point", "coordinates": [ 28.004208322000068, -17.541735794999965 ] } },
{ "type": "Feature", "properties": { "name": "Punza", "ward": "3", "village": "Kaningo", "description": "Fully Functional", "imgURL": null, "layer": null, "path": "D:\\perssonal\\BingaMasterPlan\\shapefiles\\Water Points\\Water Points.shp" }, "geometry": { "type": "Point", "coordinates": [ 27.982841496000049, -17.448831282999947 ] } },
{ "type": "Feature", "properties": { "name": "Simandende", "ward": "3", "village": "Nagangala", "description": "Collapsed / Abandoned", "imgURL": null, "layer": null, "path": "D:\\perssonal\\BingaMasterPlan\\shapefiles\\Water Points\\Water Points.shp" }, "geometry": { "type": "Point", "coordinates": [ 27.997537860000023, -17.479433657999948 ] } },
{ "type": "Feature", "properties": { "name": "Mpande", "ward": "3", "village": "Mpande", "description": "Fully Functional", "imgURL": null, "layer": null, "path": "D:\\perssonal\\BingaMasterPlan\\shapefiles\\Water Points\\Water Points.shp" }, "geometry": { "type": "Point", "coordinates": [ 27.947420979000071, -17.497868680999943 ] } },
{ "type": "Feature", "properties": { "name": "Mpinya", "ward": "3", "village": "Nagangala", "description": "Non-Functional", "imgURL": null, "layer": null, "path": "D:\\perssonal\\BingaMasterPlan\\shapefiles\\Water Points\\Water Points.shp" }, "geometry": { "type": "Point", "coordinates": [ 27.99707481400003, -17.511999095999954 ] } },
{ "type": "Feature", "properties": { "name": "Kakuyu", "ward": "23", "village": "Sikkumbu", "description": "Non-Functional", "imgURL": null, "layer": null, "path": "D:\\perssonal\\BingaMasterPlan\\shapefiles\\Water Points\\Water Points.shp" }, "geometry": { "type": "Point", "coordinates": [ 28.140680210000028, -17.515448344999982 ] } },
{ "type": "Feature", "properties": { "name": "Dimalima", "ward": "23", "village": "Mutunda", "description": "Non-Functional", "imgURL": null, "layer": null, "path": "D:\\perssonal\\BingaMasterPlan\\shapefiles\\Water Points\\Water Points.shp" }, "geometry": { "type": "Point", "coordinates": [ 28.144642937000071, -17.457965749999971 ] } },
{ "type": "Feature", "properties": { "name": "Mwaata", "ward": "3", "village": "Mpande", "description": "Partially Functional", "imgURL": null, "layer": null, "path": "D:\\perssonal\\BingaMasterPlan\\shapefiles\\Water Points\\Water Points.shp" }, "geometry": { "type": "Point", "coordinates": [ 27.958723728000052, -17.480147931999966 ] } },
{ "type": "Feature", "properties": { "name": "Chilamba", "ward": "3", "village": "Chilamba", "description": "Collapsed / Abandoned", "imgURL": null, "layer": null, "path": "D:\\perssonal\\BingaMasterPlan\\shapefiles\\Water Points\\Water Points.shp" }, "geometry": { "type": "Point", "coordinates": [ 27.966907238000033, -17.526054298999952 ] } },
{ "type": "Feature", "properties": { "name": "Siankabe", "ward": "3", "village": "Nagangala", "description": "Non-Functional", "imgURL": null, "layer": null, "path": "D:\\perssonal\\BingaMasterPlan\\shapefiles\\Water Points\\Water Points.shp" }, "geometry": { "type": "Point", "coordinates": [ 28.017175993000023, -17.488833193999938 ] } },
{ "type": "Feature", "properties": { "name": "Muzinga", "ward": "3", "village": "Mpande", "description": "Collapsed / Abandoned", "imgURL": null, "layer": null, "path": "D:\\perssonal\\BingaMasterPlan\\shapefiles\\Water Points\\Water Points.shp" }, "geometry": { "type": "Point", "coordinates": [ 27.952926503000072, -17.478945026999952 ] } },
{ "type": "Feature", "properties": { "name": "Nagunga", "ward": "3", "village": "Nsambala", "description": "Collapsed / Abandoned", "imgURL": null, "layer": null, "path": "D:\\perssonal\\BingaMasterPlan\\shapefiles\\Water Points\\Water Points.shp" }, "geometry": { "type": "Point", "coordinates": [ 27.932931792000034, -17.47380876099993 ] } },
{ "type": "Feature", "properties": { "name": "Muchenjezegwe", "ward": "3", "village": "Kaningo", "description": "Fully Functional", "imgURL": null, "layer": null, "path": "D:\\perssonal\\BingaMasterPlan\\shapefiles\\Water Points\\Water Points.shp" }, "geometry": { "type": "Point", "coordinates": [ 27.941872740000065, -17.47094638599998 ] } },
{ "type": "Feature", "properties": { "name": "Kambululu", "ward": "3", "village": "Chilamba", "description": "Non-Functional", "imgURL": null, "layer": null, "path": "D:\\perssonal\\BingaMasterPlan\\shapefiles\\Water Points\\Water Points.shp" }, "geometry": { "type": "Point", "coordinates": [ 27.957573199000024, -17.494658000999948 ] } },
{ "type": "Feature", "properties": { "name": "Camusyozya", "ward": "3", "village": "Nagangala", "description": "Fully Functional", "imgURL": null, "layer": null, "path": "D:\\perssonal\\BingaMasterPlan\\shapefiles\\Water Points\\Water Points.shp" }, "geometry": { "type": "Point", "coordinates": [ 28.016814535000037, -17.498414639999964 ] } },
{ "type": "Feature", "properties": { "name": "Masikili", "ward": "3", "village": "Kaningo", "description": "Fully Functional", "imgURL": null, "layer": null, "path": "D:\\perssonal\\BingaMasterPlan\\shapefiles\\Water Points\\Water Points.shp" }, "geometry": { "type": "Point", "coordinates": [ 27.949188193000055, -17.47606068999994 ] } },
{ "type": "Feature", "properties": { "name": "Mapilipili 1", "ward": "3", "village": "Chisale", "description": "Collapsed / Abandoned", "imgURL": null, "layer": null, "path": "D:\\perssonal\\BingaMasterPlan\\shapefiles\\Water Points\\Water Points.shp" }, "geometry": { "type": "Point", "coordinates": [ 27.965500594000048, -17.501230845999942 ] } },
{ "type": "Feature", "properties": { "name": "Choma", "ward": "3", "village": "Nagangala", "description": "Collapsed / Abandoned", "imgURL": null, "layer": null, "path": "D:\\perssonal\\BingaMasterPlan\\shapefiles\\Water Points\\Water Points.shp" }, "geometry": { "type": "Point", "coordinates": [ 28.001656384000057, -17.493385588999956 ] } },
{ "type": "Feature", "properties": { "name": "Nswelo", "ward": "3", "village": "Kaningo", "description": "Fully Functional", "imgURL": null, "layer": null, "path": "D:\\perssonal\\BingaMasterPlan\\shapefiles\\Water Points\\Water Points.shp" }, "geometry": { "type": "Point", "coordinates": [ 27.976922151000053, -17.452318494999929 ] } },
{ "type": "Feature", "properties": { "name": "Kapese", "ward": "3", "village": "Nsambala", "description": "Non-Functional", "imgURL": null, "layer": null, "path": "D:\\perssonal\\BingaMasterPlan\\shapefiles\\Water Points\\Water Points.shp" }, "geometry": { "type": "Point", "coordinates": [ 27.913187527000048, -17.484818708999967 ] } },
{ "type": "Feature", "properties": { "name": "Samende", "ward": "3", "village": "Mpande", "description": "Non-Functional", "imgURL": null, "layer": null, "path": "D:\\perssonal\\BingaMasterPlan\\shapefiles\\Water Points\\Water Points.shp" }, "geometry": { "type": "Point", "coordinates": [ 27.946910040000034, -17.477539737999962 ] } },
{ "type": "Feature", "properties": { "name": "Kanywanziba", "ward": "3", "village": "Kaningo", "description": "Fully Functional", "imgURL": null, "layer": null, "path": "D:\\perssonal\\BingaMasterPlan\\shapefiles\\Water Points\\Water Points.shp" }, "geometry": { "type": "Point", "coordinates": [ 27.97804046400006, -17.440769433999947 ] } },
{ "type": "Feature", "properties": { "name": "Kankudu", "ward": "3", "village": "Nagangala", "description": "Non-Functional", "imgURL": null, "layer": null, "path": "D:\\perssonal\\BingaMasterPlan\\shapefiles\\Water Points\\Water Points.shp" }, "geometry": { "type": "Point", "coordinates": [ 28.002679016000059, -17.53325661599996 ] } },
{ "type": "Feature", "properties": { "name": "Kalilachulwa", "ward": "3", "village": "Nagangala", "description": "Fully Functional", "imgURL": null, "layer": null, "path": "D:\\perssonal\\BingaMasterPlan\\shapefiles\\Water Points\\Water Points.shp" }, "geometry": { "type": "Point", "coordinates": [ 27.993725804000064, -17.485513619999949 ] } },
{ "type": "Feature", "properties": { "name": "Tujatane", "ward": "3", "village": "Chilamba", "description": "Non-Functional", "imgURL": null, "layer": null, "path": "D:\\perssonal\\BingaMasterPlan\\shapefiles\\Water Points\\Water Points.shp" }, "geometry": { "type": "Point", "coordinates": [ 27.963926366000067, -17.513084293999952 ] } },
{ "type": "Feature", "properties": { "name": "Siajenga", "ward": "3", "village": "Mpande", "description": "Non-Functional", "imgURL": null, "layer": null, "path": "D:\\perssonal\\BingaMasterPlan\\shapefiles\\Water Points\\Water Points.shp" }, "geometry": { "type": "Point", "coordinates": [ 27.956931749000034, -17.482144606999952 ] } },
{ "type": "Feature", "properties": { "name": "Sindyomba", "ward": "3", "village": "Chilamba", "description": "Non-Functional", "imgURL": null, "layer": null, "path": "D:\\perssonal\\BingaMasterPlan\\shapefiles\\Water Points\\Water Points.shp" }, "geometry": { "type": "Point", "coordinates": [ 27.96720302600005, -17.566651256999933 ] } },
{ "type": "Feature", "properties": { "name": "Kusikili", "ward": "3", "village": "Nsambala", "description": "Fully Functional", "imgURL": null, "layer": null, "path": "D:\\perssonal\\BingaMasterPlan\\shapefiles\\Water Points\\Water Points.shp" }, "geometry": { "type": "Point", "coordinates": [ 27.933214615000054, -17.476889562999929 ] } },
{ "type": "Feature", "properties": { "name": "Mageye", "ward": "3", "village": "Chisale", "description": "Non-Functional", "imgURL": null, "layer": null, "path": "D:\\perssonal\\BingaMasterPlan\\shapefiles\\Water Points\\Water Points.shp" }, "geometry": { "type": "Point", "coordinates": [ 27.994639511000059, -17.511588690999929 ] } },
{ "type": "Feature", "properties": { "name": "Mantondo 1", "ward": "3", "village": "Chisale", "description": "Fully Functional", "imgURL": null, "layer": null, "path": "D:\\perssonal\\BingaMasterPlan\\shapefiles\\Water Points\\Water Points.shp" }, "geometry": { "type": "Point", "coordinates": [ 27.983089148000033, -17.485586141999931 ] } },
{ "type": "Feature", "properties": { "name": "Chalyanzika", "ward": "3", "village": "Nagangala", "description": "Non-Functional", "imgURL": null, "layer": null, "path": "D:\\perssonal\\BingaMasterPlan\\shapefiles\\Water Points\\Water Points.shp" }, "geometry": { "type": "Point", "coordinates": [ 27.989948086000027, -17.490029270999969 ] } },
{ "type": "Feature", "properties": { "name": "Sindyomba", "ward": "3", "village": "Chilamba", "description": "Fully Functional", "imgURL": null, "layer": null, "path": "D:\\perssonal\\BingaMasterPlan\\shapefiles\\Water Points\\Water Points.shp" }, "geometry": { "type": "Point", "coordinates": [ 27.965454510000029, -17.57089431199995 ] } },
{ "type": "Feature", "properties": { "name": "Chilamba", "ward": "3", "village": "Mpande", "description": "Collapsed / Abandoned", "imgURL": null, "layer": null, "path": "D:\\perssonal\\BingaMasterPlan\\shapefiles\\Water Points\\Water Points.shp" }, "geometry": { "type": "Point", "coordinates": [ 27.955867085000023, -17.481821704999959 ] } },
{ "type": "Feature", "properties": { "name": "Nsambala", "ward": "3", "village": "Nsambala", "description": "Collapsed / Abandoned", "imgURL": null, "layer": null, "path": "D:\\perssonal\\BingaMasterPlan\\shapefiles\\Water Points\\Water Points.shp" }, "geometry": { "type": "Point", "coordinates": [ 27.922475856000062, -17.481747470999949 ] } },
{ "type": "Feature", "properties": { "name": "Siambale", "ward": "3", "village": "Nagangala", "description": "Fully Functional", "imgURL": null, "layer": null, "path": "D:\\perssonal\\BingaMasterPlan\\shapefiles\\Water Points\\Water Points.shp" }, "geometry": { "type": "Point", "coordinates": [ 28.010823552000033, -17.459481417999939 ] } },
{ "type": "Feature", "properties": { "name": "Zunde", "ward": "3", "village": "Chisale", "description": "Fully Functional", "imgURL": null, "layer": null, "path": "D:\\perssonal\\BingaMasterPlan\\shapefiles\\Water Points\\Water Points.shp" }, "geometry": { "type": "Point", "coordinates": [ 27.964304964000064, -17.486117185999944 ] } },
{ "type": "Feature", "properties": { "name": "Mulambe 1", "ward": "23", "village": "Mulambe", "description": "Fully Functional", "imgURL": null, "layer": null, "path": "D:\\perssonal\\BingaMasterPlan\\shapefiles\\Water Points\\Water Points.shp" }, "geometry": { "type": "Point", "coordinates": [ 28.208332903000041, -17.404494725999939 ] } },
{ "type": "Feature", "properties": { "name": "Muntelemu", "ward": "3", "village": "Nagangala", "description": "Collapsed / Abandoned", "imgURL": null, "layer": null, "path": "D:\\perssonal\\BingaMasterPlan\\shapefiles\\Water Points\\Water Points.shp" }, "geometry": { "type": "Point", "coordinates": [ 28.022552277000045, -17.496368003999976 ] } },
{ "type": "Feature", "properties": { "name": "Mundando", "ward": "3", "village": "Chisale", "description": "Non-Functional", "imgURL": null, "layer": null, "path": "D:\\perssonal\\BingaMasterPlan\\shapefiles\\Water Points\\Water Points.shp" }, "geometry": { "type": "Point", "coordinates": [ 27.981351741000026, -17.505568824999955 ] } },
{ "type": "Feature", "properties": { "name": "Siabitiki", "ward": "3", "village": "Nagangala", "description": "Fully Functional", "imgURL": null, "layer": null, "path": "D:\\perssonal\\BingaMasterPlan\\shapefiles\\Water Points\\Water Points.shp" }, "geometry": { "type": "Point", "coordinates": [ 28.015809131000026, -17.49225845199993 ] } },
{ "type": "Feature", "properties": { "name": "Fambeki", "ward": "3", "village": "Chilamba", "description": "Fully Functional", "imgURL": null, "layer": null, "path": "D:\\perssonal\\BingaMasterPlan\\shapefiles\\Water Points\\Water Points.shp" }, "geometry": { "type": "Point", "coordinates": [ 27.963342056000045, -17.506765002999941 ] } },
{ "type": "Feature", "properties": { "name": "Mantondo 2", "ward": "3", "village": "Chisale", "description": "Fully Functional", "imgURL": null, "layer": null, "path": "D:\\perssonal\\BingaMasterPlan\\shapefiles\\Water Points\\Water Points.shp" }, "geometry": { "type": "Point", "coordinates": [ 27.983861789000059, -17.485777858999938 ] } },
{ "type": "Feature", "properties": { "name": "Kabozu", "ward": "3", "village": "Nsambala", "description": "Non-Functional", "imgURL": null, "layer": null, "path": "D:\\perssonal\\BingaMasterPlan\\shapefiles\\Water Points\\Water Points.shp" }, "geometry": { "type": "Point", "coordinates": [ 27.875723967000056, -17.481236575999958 ] } },
{ "type": "Feature", "properties": { "name": "Detema", "ward": "3", "village": "Chilamba", "description": "Collapsed / Abandoned", "imgURL": null, "layer": null, "path": "D:\\perssonal\\BingaMasterPlan\\shapefiles\\Water Points\\Water Points.shp" }, "geometry": { "type": "Point", "coordinates": [ 27.948927582000067, -17.548924866999982 ] } },
{ "type": "Feature", "properties": { "name": "Siamusila", "ward": "3", "village": "Chilamba", "description": "Non-Functional", "imgURL": null, "layer": null, "path": "D:\\perssonal\\BingaMasterPlan\\shapefiles\\Water Points\\Water Points.shp" }, "geometry": { "type": "Point", "coordinates": [ 27.951318068000035, -17.55673044699995 ] } },
{ "type": "Feature", "properties": { "name": "Kasawu Kamakala", "ward": "23", "village": "Mulambe", "description": "Collapsed / Abandoned", "imgURL": null, "layer": null, "path": "D:\\perssonal\\BingaMasterPlan\\shapefiles\\Water Points\\Water Points.shp" }, "geometry": { "type": "Point", "coordinates": [ 28.202000031000068, -17.438482280999949 ] } },
{ "type": "Feature", "properties": { "name": "Mapilipili 2", "ward": "3", "village": "Chisale", "description": "Non-Functional", "imgURL": null, "layer": null, "path": "D:\\perssonal\\BingaMasterPlan\\shapefiles\\Water Points\\Water Points.shp" }, "geometry": { "type": "Point", "coordinates": [ 27.964184271000079, -17.494649079999931 ] } },
{ "type": "Feature", "properties": { "name": "Nsole", "ward": "3", "village": "Nagangala", "description": "Fully Functional", "imgURL": null, "layer": null, "path": "D:\\perssonal\\BingaMasterPlan\\shapefiles\\Water Points\\Water Points.shp" }, "geometry": { "type": "Point", "coordinates": [ 27.987933647000034, -17.452142484999968 ] } },
{ "type": "Feature", "properties": { "name": "Namapini", "ward": "3", "village": "Mpande", "description": "Fully Functional", "imgURL": null, "layer": null, "path": "D:\\perssonal\\BingaMasterPlan\\shapefiles\\Water Points\\Water Points.shp" }, "geometry": { "type": "Point", "coordinates": [ 27.937587309000037, -17.479188341999929 ] } },
{ "type": "Feature", "properties": { "name": "Lunyalalo", "ward": "3", "village": "Nagangala", "description": "Non-Functional", "imgURL": null, "layer": null, "path": "D:\\perssonal\\BingaMasterPlan\\shapefiles\\Water Points\\Water Points.shp" }, "geometry": { "type": "Point", "coordinates": [ 27.987384040000052, -17.475456967999946 ] } },
{ "type": "Feature", "properties": { "name": "Sibwacha", "ward": "3", "village": "Nagangala", "description": "Collapsed / Abandoned", "imgURL": null, "layer": null, "path": "D:\\perssonal\\BingaMasterPlan\\shapefiles\\Water Points\\Water Points.shp" }, "geometry": { "type": "Point", "coordinates": [ 28.009403391000035, -17.483766614999979 ] } },
{ "type": "Feature", "properties": { "name": "Sianakakuyu", "ward": "3", "village": "Nagangala", "description": "Non-Functional", "imgURL": null, "layer": null, "path": "D:\\perssonal\\BingaMasterPlan\\shapefiles\\Water Points\\Water Points.shp" }, "geometry": { "type": "Point", "coordinates": [ 27.994262742000046, -17.507385282999962 ] } },
{ "type": "Feature", "properties": { "name": "Chiyakabali", "ward": "3", "village": "Mpande", "description": "Collapsed / Abandoned", "imgURL": null, "layer": null, "path": "D:\\perssonal\\BingaMasterPlan\\shapefiles\\Water Points\\Water Points.shp" }, "geometry": { "type": "Point", "coordinates": [ 27.960778925000056, -17.490875797999934 ] } },
{ "type": "Feature", "properties": { "name": "Mujate Obotu", "ward": "3", "village": "Chilamba", "description": "Non-Functional", "imgURL": null, "layer": null, "path": "D:\\perssonal\\BingaMasterPlan\\shapefiles\\Water Points\\Water Points.shp" }, "geometry": { "type": "Point", "coordinates": [ 27.966007288000071, -17.538925495999933 ] } },
{ "type": "Feature", "properties": { "name": "Manziatuba", "ward": "3", "village": "Kaningo", "description": "Collapsed / Abandoned", "imgURL": null, "layer": null, "path": "D:\\perssonal\\BingaMasterPlan\\shapefiles\\Water Points\\Water Points.shp" }, "geometry": { "type": "Point", "coordinates": [ 27.952923228000031, -17.466625435999958 ] } },
{ "type": "Feature", "properties": { "name": "Chamenda", "ward": "3", "village": "Nagangala", "description": "Collapsed / Abandoned", "imgURL": null, "layer": null, "path": "D:\\perssonal\\BingaMasterPlan\\shapefiles\\Water Points\\Water Points.shp" }, "geometry": { "type": "Point", "coordinates": [ 27.993359558000066, -17.495393393999962 ] } },
{ "type": "Feature", "properties": { "name": "Chalyengula", "ward": "23", "village": "Mutunda", "description": "Collapsed / Abandoned", "imgURL": null, "layer": null, "path": "D:\\perssonal\\BingaMasterPlan\\shapefiles\\Water Points\\Water Points.shp" }, "geometry": { "type": "Point", "coordinates": [ 28.154666297000063, -17.452913728999931 ] } },
{ "type": "Feature", "properties": { "name": "Katete", "ward": "3", "village": "Nsambala", "description": "Non-Functional", "imgURL": null, "layer": null, "path": "D:\\perssonal\\BingaMasterPlan\\shapefiles\\Water Points\\Water Points.shp" }, "geometry": { "type": "Point", "coordinates": [ 27.932334560000072, -17.473942331999979 ] } },
{ "type": "Feature", "properties": { "name": "Dambiro", "ward": "3", "village": "Chilamba", "description": "Collapsed / Abandoned", "imgURL": null, "layer": null, "path": "D:\\perssonal\\BingaMasterPlan\\shapefiles\\Water Points\\Water Points.shp" }, "geometry": { "type": "Point", "coordinates": [ 27.962970135000035, -17.551389223999934 ] } },
{ "type": "Feature", "properties": { "name": "Chilimba", "ward": "23", "village": "Mulambe", "description": "Non-Functional", "imgURL": null, "layer": null, "path": "D:\\perssonal\\BingaMasterPlan\\shapefiles\\Water Points\\Water Points.shp" }, "geometry": { "type": "Point", "coordinates": [ 28.232442166000055, -17.368099349999966 ] } },
{ "type": "Feature", "properties": { "name": "Gaji", "ward": "23", "village": "Mulambe", "description": "Fully Functional", "imgURL": null, "layer": null, "path": "D:\\perssonal\\BingaMasterPlan\\shapefiles\\Water Points\\Water Points.shp" }, "geometry": { "type": "Point", "coordinates": [ 28.236374007000052, -17.382848007999939 ] } },
{ "type": "Feature", "properties": { "name": "Nabbambwe", "ward": "23", "village": "Muyobe", "description": "Non-Functional", "imgURL": null, "layer": null, "path": "D:\\perssonal\\BingaMasterPlan\\shapefiles\\Water Points\\Water Points.shp" }, "geometry": { "type": "Point", "coordinates": [ 28.074478561000035, -17.467443097999933 ] } },
{ "type": "Feature", "properties": { "name": "Gendo", "ward": "23", "village": "Mulambe", "description": "Fully Functional", "imgURL": null, "layer": null, "path": "D:\\perssonal\\BingaMasterPlan\\shapefiles\\Water Points\\Water Points.shp" }, "geometry": { "type": "Point", "coordinates": [ 28.210340831000053, -17.404356315999962 ] } },
{ "type": "Feature", "properties": { "name": "Gunga", "ward": "23", "village": "Malube", "description": "Collapsed / Abandoned", "imgURL": null, "layer": null, "path": "D:\\perssonal\\BingaMasterPlan\\shapefiles\\Water Points\\Water Points.shp" }, "geometry": { "type": "Point", "coordinates": [ 28.097782390000077, -17.461391628999934 ] } },
{ "type": "Feature", "properties": { "name": "Muswa 1", "ward": "23", "village": "Kalungwizi", "description": "Fully Functional", "imgURL": null, "layer": null, "path": "D:\\perssonal\\BingaMasterPlan\\shapefiles\\Water Points\\Water Points.shp" }, "geometry": { "type": "Point", "coordinates": [ 28.208916312000042, -17.472166073999972 ] } },
{ "type": "Feature", "properties": { "name": "Siabweka", "ward": "23", "village": "Kalungwizi", "description": "Collapsed / Abandoned", "imgURL": null, "layer": null, "path": "D:\\perssonal\\BingaMasterPlan\\shapefiles\\Water Points\\Water Points.shp" }, "geometry": { "type": "Point", "coordinates": [ 28.226026513000079, -17.451226361999943 ] } },
{ "type": "Feature", "properties": { "name": "Syamafwinya", "ward": "23", "village": "Mutunda", "description": "Fully Functional", "imgURL": null, "layer": null, "path": "D:\\perssonal\\BingaMasterPlan\\shapefiles\\Water Points\\Water Points.shp" }, "geometry": { "type": "Point", "coordinates": [ 28.170031609000034, -17.410711979999974 ] } },
{ "type": "Feature", "properties": { "name": "Carbon  Green  Africa  Rest  Camp", "ward": "23", "village": "Muyobe", "description": "Non-Functional", "imgURL": null, "layer": null, "path": "D:\\perssonal\\BingaMasterPlan\\shapefiles\\Water Points\\Water Points.shp" }, "geometry": { "type": "Point", "coordinates": [ 28.061668223000027, -17.438400573999957 ] } },
{ "type": "Feature", "properties": { "name": "Chovwe", "ward": "23", "village": "Kalungwizi", "description": "Non-Functional", "imgURL": null, "layer": null, "path": "D:\\perssonal\\BingaMasterPlan\\shapefiles\\Water Points\\Water Points.shp" }, "geometry": { "type": "Point", "coordinates": [ 28.197495733000039, -17.478123933999939 ] } },
{ "type": "Feature", "properties": { "name": "Madamu", "ward": "23", "village": "Kalungwizi", "description": "Non-Functional", "imgURL": null, "layer": null, "path": "D:\\perssonal\\BingaMasterPlan\\shapefiles\\Water Points\\Water Points.shp" }, "geometry": { "type": "Point", "coordinates": [ 28.184589538000068, -17.459516145999942 ] } },
{ "type": "Feature", "properties": { "name": "Seven Angels Chamatala", "ward": "23", "village": "Mutunda", "description": "Non-Functional", "imgURL": null, "layer": null, "path": "D:\\perssonal\\BingaMasterPlan\\shapefiles\\Water Points\\Water Points.shp" }, "geometry": { "type": "Point", "coordinates": [ 28.175472815000035, -17.443081580999944 ] } },
{ "type": "Feature", "properties": { "name": "Mankandwa", "ward": "23", "village": "Mutunda", "description": "Partially Functional", "imgURL": null, "layer": null, "path": "D:\\perssonal\\BingaMasterPlan\\shapefiles\\Water Points\\Water Points.shp" }, "geometry": { "type": "Point", "coordinates": [ 28.159086083000034, -17.459621023999944 ] } },
{ "type": "Feature", "properties": { "name": "Chabacheche", "ward": "23", "village": "Kalungwizi", "description": "Non-Functional", "imgURL": null, "layer": null, "path": "D:\\perssonal\\BingaMasterPlan\\shapefiles\\Water Points\\Water Points.shp" }, "geometry": { "type": "Point", "coordinates": [ 28.190899850000051, -17.465842950999956 ] } },
{ "type": "Feature", "properties": { "name": "Mukachakacha", "ward": "23", "village": "Kalungwizi", "description": "Non-Functional", "imgURL": null, "layer": null, "path": "D:\\perssonal\\BingaMasterPlan\\shapefiles\\Water Points\\Water Points.shp" }, "geometry": { "type": "Point", "coordinates": [ 28.19583020500005, -17.453274532999956 ] } },
{ "type": "Feature", "properties": { "name": "Mpendamo", "ward": "23", "village": "Malube", "description": "Collapsed / Abandoned", "imgURL": null, "layer": null, "path": "D:\\perssonal\\BingaMasterPlan\\shapefiles\\Water Points\\Water Points.shp" }, "geometry": { "type": "Point", "coordinates": [ 28.130692543000066, -17.462589430999969 ] } },
{ "type": "Feature", "properties": { "name": "Syatambe", "ward": "23", "village": "Kalungwizi", "description": "Non-Functional", "imgURL": null, "layer": null, "path": "D:\\perssonal\\BingaMasterPlan\\shapefiles\\Water Points\\Water Points.shp" }, "geometry": { "type": "Point", "coordinates": [ 28.22742334000003, -17.461908401999949 ] } },
{ "type": "Feature", "properties": { "name": "Siakalulwe", "ward": "23", "village": "Mutunda", "description": "Non-Functional", "imgURL": null, "layer": null, "path": "D:\\perssonal\\BingaMasterPlan\\shapefiles\\Water Points\\Water Points.shp" }, "geometry": { "type": "Point", "coordinates": [ 28.159877676000065, -17.442783952999946 ] } },
{ "type": "Feature", "properties": { "name": "Sianfuno", "ward": "23", "village": "Sikkumbu", "description": "Collapsed / Abandoned", "imgURL": null, "layer": null, "path": "D:\\perssonal\\BingaMasterPlan\\shapefiles\\Water Points\\Water Points.shp" }, "geometry": { "type": "Point", "coordinates": [ 28.103449500000067, -17.481130891999953 ] } },
{ "type": "Feature", "properties": { "name": "Mulimacali", "ward": "23", "village": "Malube", "description": "Non-Functional", "imgURL": null, "layer": null, "path": "D:\\perssonal\\BingaMasterPlan\\shapefiles\\Water Points\\Water Points.shp" }, "geometry": { "type": "Point", "coordinates": [ 28.109238073000029, -17.444243330999939 ] } },
{ "type": "Feature", "properties": { "name": "Clean Water", "ward": "23", "village": "Kalungwizi", "description": "Non-Functional", "imgURL": null, "layer": null, "path": "D:\\perssonal\\BingaMasterPlan\\shapefiles\\Water Points\\Water Points.shp" }, "geometry": { "type": "Point", "coordinates": [ 28.221806238000056, -17.46697938799997 ] } },
{ "type": "Feature", "properties": { "name": "Syamulumbwana", "ward": "23", "village": "Mulambe", "description": "Non-Functional", "imgURL": null, "layer": null, "path": "D:\\perssonal\\BingaMasterPlan\\shapefiles\\Water Points\\Water Points.shp" }, "geometry": { "type": "Point", "coordinates": [ 28.228830395000045, -17.363979699999959 ] } },
{ "type": "Feature", "properties": { "name": "Kalungwizi", "ward": "23", "village": "Kalungwizi", "description": "Collapsed / Abandoned", "imgURL": null, "layer": null, "path": "D:\\perssonal\\BingaMasterPlan\\shapefiles\\Water Points\\Water Points.shp" }, "geometry": { "type": "Point", "coordinates": [ 28.199563823000062, -17.464897260999976 ] } },
{ "type": "Feature", "properties": { "name": "Magamuna", "ward": "23", "village": "Kalungwizi", "description": "Non-Functional", "imgURL": null, "layer": null, "path": "D:\\perssonal\\BingaMasterPlan\\shapefiles\\Water Points\\Water Points.shp" }, "geometry": { "type": "Point", "coordinates": [ 28.191041064000046, -17.465928826999971 ] } },
{ "type": "Feature", "properties": { "name": "Z I N W A   Siabuwa  Station", "ward": "23", "village": "Muyobe", "description": "Non-Functional", "imgURL": null, "layer": null, "path": "D:\\perssonal\\BingaMasterPlan\\shapefiles\\Water Points\\Water Points.shp" }, "geometry": { "type": "Point", "coordinates": [ 28.058350258000075, -17.458663685999966 ] } },
{ "type": "Feature", "properties": { "name": "Syachiyasa", "ward": "23", "village": "Kalungwizi", "description": "Non-Functional", "imgURL": null, "layer": null, "path": "D:\\perssonal\\BingaMasterPlan\\shapefiles\\Water Points\\Water Points.shp" }, "geometry": { "type": "Point", "coordinates": [ 28.220483591000061, -17.447051466999937 ] } },
{ "type": "Feature", "properties": { "name": "Nansima", "ward": "23", "village": "Mulambe", "description": "Collapsed / Abandoned", "imgURL": null, "layer": null, "path": "D:\\perssonal\\BingaMasterPlan\\shapefiles\\Water Points\\Water Points.shp" }, "geometry": { "type": "Point", "coordinates": [ 28.214356318000057, -17.400559413999929 ] } },
{ "type": "Feature", "properties": { "name": "Siapepe", "ward": "23", "village": "Sikkumbu", "description": "Collapsed / Abandoned", "imgURL": null, "layer": null, "path": "D:\\perssonal\\BingaMasterPlan\\shapefiles\\Water Points\\Water Points.shp" }, "geometry": { "type": "Point", "coordinates": [ 28.123809619000042, -17.480297170999961 ] } },
{ "type": "Feature", "properties": { "name": "Mankolongwe", "ward": "23", "village": "Mulambe", "description": "Fully Functional", "imgURL": null, "layer": null, "path": "D:\\perssonal\\BingaMasterPlan\\shapefiles\\Water Points\\Water Points.shp" }, "geometry": { "type": "Point", "coordinates": [ 28.214381829000047, -17.41424748299994 ] } },
{ "type": "Feature", "properties": { "name": "Malamba", "ward": "23", "village": "Sikkumbu", "description": "Non-Functional", "imgURL": null, "layer": null, "path": "D:\\perssonal\\BingaMasterPlan\\shapefiles\\Water Points\\Water Points.shp" }, "geometry": { "type": "Point", "coordinates": [ 28.128705047000039, -17.523137126999927 ] } },
{ "type": "Feature", "properties": { "name": "Leonard", "ward": "23", "village": "Mulambe", "description": "Collapsed / Abandoned", "imgURL": null, "layer": null, "path": "D:\\perssonal\\BingaMasterPlan\\shapefiles\\Water Points\\Water Points.shp" }, "geometry": { "type": "Point", "coordinates": [ 28.206778553000049, -17.439796691999959 ] } },
{ "type": "Feature", "properties": { "name": "Mutambi", "ward": "23", "village": "Malube", "description": "Collapsed / Abandoned", "imgURL": null, "layer": null, "path": "D:\\perssonal\\BingaMasterPlan\\shapefiles\\Water Points\\Water Points.shp" }, "geometry": { "type": "Point", "coordinates": [ 28.088743198000031, -17.449453941999934 ] } },
{ "type": "Feature", "properties": { "name": "Muswa 2", "ward": "23", "village": "Kalungwizi", "description": "Fully Functional", "imgURL": null, "layer": null, "path": "D:\\perssonal\\BingaMasterPlan\\shapefiles\\Water Points\\Water Points.shp" }, "geometry": { "type": "Point", "coordinates": [ 28.213358877000076, -17.474583184999972 ] } },
{ "type": "Feature", "properties": { "name": "Nalukawu  earth", "ward": "23", "village": "Sikkumbu", "description": "Collapsed / Abandoned", "imgURL": null, "layer": null, "path": "D:\\perssonal\\BingaMasterPlan\\shapefiles\\Water Points\\Water Points.shp" }, "geometry": { "type": "Point", "coordinates": [ 28.12501960700007, -17.503163032999964 ] } },
{ "type": "Feature", "properties": { "name": "Thomas", "ward": "23", "village": "Kalungwizi", "description": "Non-Functional", "imgURL": null, "layer": null, "path": "D:\\perssonal\\BingaMasterPlan\\shapefiles\\Water Points\\Water Points.shp" }, "geometry": { "type": "Point", "coordinates": [ 28.20707767500005, -17.466490169999929 ] } },
{ "type": "Feature", "properties": { "name": "Sikapongo", "ward": "23", "village": "Muyobe", "description": "Non-Functional", "imgURL": null, "layer": null, "path": "D:\\perssonal\\BingaMasterPlan\\shapefiles\\Water Points\\Water Points.shp" }, "geometry": { "type": "Point", "coordinates": [ 28.08659936600003, -17.451183961999959 ] } },
{ "type": "Feature", "properties": { "name": "Simunyama", "ward": "23", "village": "Kalungwizi", "description": "Non-Functional", "imgURL": null, "layer": null, "path": "D:\\perssonal\\BingaMasterPlan\\shapefiles\\Water Points\\Water Points.shp" }, "geometry": { "type": "Point", "coordinates": [ 28.187311885000042, -17.46241697499994 ] } },
{ "type": "Feature", "properties": { "name": "Mulimacali", "ward": "23", "village": "Malube", "description": "Collapsed / Abandoned", "imgURL": null, "layer": null, "path": "D:\\perssonal\\BingaMasterPlan\\shapefiles\\Water Points\\Water Points.shp" }, "geometry": { "type": "Point", "coordinates": [ 28.112356280000029, -17.443979247999948 ] } },
{ "type": "Feature", "properties": { "name": "Jorodani", "ward": "23", "village": "Mutunda", "description": "Fully Functional", "imgURL": null, "layer": null, "path": "D:\\perssonal\\BingaMasterPlan\\shapefiles\\Water Points\\Water Points.shp" }, "geometry": { "type": "Point", "coordinates": [ 28.173025442000039, -17.453601818999971 ] } },
{ "type": "Feature", "properties": { "name": "Kalungwizi", "ward": "23", "village": "Kalungwizi", "description": "Partially Functional", "imgURL": null, "layer": null, "path": "D:\\perssonal\\BingaMasterPlan\\shapefiles\\Water Points\\Water Points.shp" }, "geometry": { "type": "Point", "coordinates": [ 28.201293900000053, -17.467259874999968 ] } },
{ "type": "Feature", "properties": { "name": "Siatyongo", "ward": "23", "village": "Malube", "description": "Non-Functional", "imgURL": null, "layer": null, "path": "D:\\perssonal\\BingaMasterPlan\\shapefiles\\Water Points\\Water Points.shp" }, "geometry": { "type": "Point", "coordinates": [ 28.088134371000024, -17.45608550399993 ] } },
{ "type": "Feature", "properties": { "name": "Malube", "ward": "23", "village": "Malube", "description": "Non-Functional", "imgURL": null, "layer": null, "path": "D:\\perssonal\\BingaMasterPlan\\shapefiles\\Water Points\\Water Points.shp" }, "geometry": { "type": "Point", "coordinates": [ 28.097785521000048, -17.442446225999959 ] } },
{ "type": "Feature", "properties": { "name": "Kalungwizi", "ward": "23", "village": "Kalungwizi", "description": "Non-Functional", "imgURL": null, "layer": null, "path": "D:\\perssonal\\BingaMasterPlan\\shapefiles\\Water Points\\Water Points.shp" }, "geometry": { "type": "Point", "coordinates": [ 28.199571617000061, -17.466017417999979 ] } },
{ "type": "Feature", "properties": { "name": "Siachibonde", "ward": "23", "village": "Mulambe", "description": "Non-Functional", "imgURL": null, "layer": null, "path": "D:\\perssonal\\BingaMasterPlan\\shapefiles\\Water Points\\Water Points.shp" }, "geometry": { "type": "Point", "coordinates": [ 28.204921636000051, -17.406910980999953 ] } },
{ "type": "Feature", "properties": { "name": "Nabusenga", "ward": "23", "village": "Muyobe", "description": "Non-Functional", "imgURL": null, "layer": null, "path": "D:\\perssonal\\BingaMasterPlan\\shapefiles\\Water Points\\Water Points.shp" }, "geometry": { "type": "Point", "coordinates": [ 28.062627434000035, -17.440228613999977 ] } },
{ "type": "Feature", "properties": { "name": "Nchenje", "ward": "23", "village": "Kalungwizi", "description": "Non-Functional", "imgURL": null, "layer": null, "path": "D:\\perssonal\\BingaMasterPlan\\shapefiles\\Water Points\\Water Points.shp" }, "geometry": { "type": "Point", "coordinates": [ 28.22603121800006, -17.451189949999957 ] } },
{ "type": "Feature", "properties": { "name": "Kabula", "ward": "23", "village": "Mulambe", "description": "Collapsed / Abandoned", "imgURL": null, "layer": null, "path": "D:\\perssonal\\BingaMasterPlan\\shapefiles\\Water Points\\Water Points.shp" }, "geometry": { "type": "Point", "coordinates": [ 28.229791505000037, -17.406467919999955 ] } },
{ "type": "Feature", "properties": { "name": "Kabuyu", "ward": "23", "village": "Sikkumbu", "description": "Collapsed / Abandoned", "imgURL": null, "layer": null, "path": "D:\\perssonal\\BingaMasterPlan\\shapefiles\\Water Points\\Water Points.shp" }, "geometry": { "type": "Point", "coordinates": [ 28.113072243000033, -17.49544780399998 ] } },
{ "type": "Feature", "properties": { "name": "Sianyekela", "ward": "2", "village": "Chabwidi", "description": "Non-Functional", "imgURL": null, "layer": null, "path": "D:\\perssonal\\BingaMasterPlan\\shapefiles\\Water Points\\Water Points.shp" }, "geometry": { "type": "Point", "coordinates": [ 28.085442061000037, -17.526853083999981 ] } },
{ "type": "Feature", "properties": { "name": "Masawu", "ward": "2", "village": "Chabwidi", "description": "Non-Functional", "imgURL": null, "layer": null, "path": "D:\\perssonal\\BingaMasterPlan\\shapefiles\\Water Points\\Water Points.shp" }, "geometry": { "type": "Point", "coordinates": [ 28.095650035000062, -17.506612111999971 ] } },
{ "type": "Feature", "properties": { "name": "For You Inverstment", "ward": "2", "village": "Guteni", "description": "Non-Functional", "imgURL": null, "layer": null, "path": "D:\\perssonal\\BingaMasterPlan\\shapefiles\\Water Points\\Water Points.shp" }, "geometry": { "type": "Point", "coordinates": [ 28.044392029000051, -17.474087554999983 ] } },
{ "type": "Feature", "properties": { "name": "Siabuwa Council Sub Office", "ward": "2", "village": "Guteni", "description": "Non-Functional", "imgURL": null, "layer": null, "path": "D:\\perssonal\\BingaMasterPlan\\shapefiles\\Water Points\\Water Points.shp" }, "geometry": { "type": "Point", "coordinates": [ 28.044175949000078, -17.47413051999996 ] } },
{ "type": "Feature", "properties": { "name": "Syambale", "ward": "2", "village": "Syamankuyu", "description": "Non-Functional", "imgURL": null, "layer": null, "path": "D:\\perssonal\\BingaMasterPlan\\shapefiles\\Water Points\\Water Points.shp" }, "geometry": { "type": "Point", "coordinates": [ 28.010815145000038, -17.45951611299995 ] } },
{ "type": "Feature", "properties": { "name": "Syachibenzi", "ward": "2", "village": "Guteni", "description": "Non-Functional", "imgURL": null, "layer": null, "path": "D:\\perssonal\\BingaMasterPlan\\shapefiles\\Water Points\\Water Points.shp" }, "geometry": { "type": "Point", "coordinates": [ 28.042290751000053, -17.471570244999953 ] } },
{ "type": "Feature", "properties": { "name": "Syazobwe", "ward": "2", "village": "Kalonga", "description": "Non-Functional", "imgURL": null, "layer": null, "path": "D:\\perssonal\\BingaMasterPlan\\shapefiles\\Water Points\\Water Points.shp" }, "geometry": { "type": "Point", "coordinates": [ 28.03767401500005, -17.50800559399994 ] } },
{ "type": "Feature", "properties": { "name": "Machebuka", "ward": "2", "village": "Chabwidi", "description": "Partially Functional", "imgURL": null, "layer": null, "path": "D:\\perssonal\\BingaMasterPlan\\shapefiles\\Water Points\\Water Points.shp" }, "geometry": { "type": "Point", "coordinates": [ 28.076646130000029, -17.502618378999955 ] } },
{ "type": "Feature", "properties": { "name": "Malende", "ward": "2", "village": "Chabwidi", "description": "Collapsed / Abandoned", "imgURL": null, "layer": null, "path": "D:\\perssonal\\BingaMasterPlan\\shapefiles\\Water Points\\Water Points.shp" }, "geometry": { "type": "Point", "coordinates": [ 28.095646362000025, -17.496361694999962 ] } },
{ "type": "Feature", "properties": { "name": "Siabuwa General Dealer", "ward": "2", "village": "Guteni", "description": "Non-Functional", "imgURL": null, "layer": null, "path": "D:\\perssonal\\BingaMasterPlan\\shapefiles\\Water Points\\Water Points.shp" }, "geometry": { "type": "Point", "coordinates": [ 28.044352705000051, -17.474081789999957 ] } },
{ "type": "Feature", "properties": { "name": "Chambizi", "ward": "2", "village": "Kalonga", "description": "Collapsed / Abandoned", "imgURL": null, "layer": null, "path": "D:\\perssonal\\BingaMasterPlan\\shapefiles\\Water Points\\Water Points.shp" }, "geometry": { "type": "Point", "coordinates": [ 28.043447087000061, -17.519889708999926 ] } },
{ "type": "Feature", "properties": { "name": "Methodist Church In Zimbabwe", "ward": "2", "village": "Guteni", "description": "Non-Functional", "imgURL": null, "layer": null, "path": "D:\\perssonal\\BingaMasterPlan\\shapefiles\\Water Points\\Water Points.shp" }, "geometry": { "type": "Point", "coordinates": [ 28.041868222000062, -17.472497892999968 ] } },
{ "type": "Feature", "properties": { "name": "Vetrrinaty Field Service", "ward": "2", "village": "Guteni", "description": "Non-Functional", "imgURL": null, "layer": null, "path": "D:\\perssonal\\BingaMasterPlan\\shapefiles\\Water Points\\Water Points.shp" }, "geometry": { "type": "Point", "coordinates": [ 28.047926558000029, -17.47017019499998 ] } },
{ "type": "Feature", "properties": { "name": "Syachibulo", "ward": "2", "village": "Kalonga", "description": "Non-Functional", "imgURL": null, "layer": null, "path": "D:\\perssonal\\BingaMasterPlan\\shapefiles\\Water Points\\Water Points.shp" }, "geometry": { "type": "Point", "coordinates": [ 28.037964922000072, -17.525761259999967 ] } },
{ "type": "Feature", "properties": { "name": "Syamuyamba", "ward": "2", "village": "Syamankuyu", "description": "Non-Functional", "imgURL": null, "layer": null, "path": "D:\\perssonal\\BingaMasterPlan\\shapefiles\\Water Points\\Water Points.shp" }, "geometry": { "type": "Point", "coordinates": [ 28.025779699000054, -17.474096574999976 ] } },
{ "type": "Feature", "properties": { "name": "Ministry Of Transport", "ward": "2", "village": "Guteni", "description": "Non-Functional", "imgURL": null, "layer": null, "path": "D:\\perssonal\\BingaMasterPlan\\shapefiles\\Water Points\\Water Points.shp" }, "geometry": { "type": "Point", "coordinates": [ 28.047091100000046, -17.471837468999979 ] } },
{ "type": "Feature", "properties": { "name": "Matongo", "ward": "2", "village": "Syamankuyu", "description": "Non-Functional", "imgURL": null, "layer": null, "path": "D:\\perssonal\\BingaMasterPlan\\shapefiles\\Water Points\\Water Points.shp" }, "geometry": { "type": "Point", "coordinates": [ 28.031467772000042, -17.474727651999956 ] } },
{ "type": "Feature", "properties": { "name": "Kano Kamwe", "ward": "2", "village": "Guteni", "description": "Non-Functional", "imgURL": null, "layer": null, "path": "D:\\perssonal\\BingaMasterPlan\\shapefiles\\Water Points\\Water Points.shp" }, "geometry": { "type": "Point", "coordinates": [ 28.044863675000045, -17.474703587999954 ] } },
{ "type": "Feature", "properties": { "name": "Syamutenge", "ward": "2", "village": "Guteni", "description": "Collapsed / Abandoned", "imgURL": null, "layer": null, "path": "D:\\perssonal\\BingaMasterPlan\\shapefiles\\Water Points\\Water Points.shp" }, "geometry": { "type": "Point", "coordinates": [ 28.044173342000079, -17.473545590999947 ] } },
{ "type": "Feature", "properties": { "name": "Syandololo", "ward": "2", "village": "Syamankuyu", "description": "Non-Functional", "imgURL": null, "layer": null, "path": "D:\\perssonal\\BingaMasterPlan\\shapefiles\\Water Points\\Water Points.shp" }, "geometry": { "type": "Point", "coordinates": [ 28.017361252000057, -17.492731062999951 ] } },
{ "type": "Feature", "properties": { "name": "Syamunyukula", "ward": "2", "village": "Kalonga", "description": "Non-Functional", "imgURL": null, "layer": null, "path": "D:\\perssonal\\BingaMasterPlan\\shapefiles\\Water Points\\Water Points.shp" }, "geometry": { "type": "Point", "coordinates": [ 28.039039195000043, -17.504141554999933 ] } },
{ "type": "Feature", "properties": { "name": "Siabuwa", "ward": "2", "village": "Guteni", "description": "Non-Functional", "imgURL": null, "layer": null, "path": "D:\\perssonal\\BingaMasterPlan\\shapefiles\\Water Points\\Water Points.shp" }, "geometry": { "type": "Point", "coordinates": [ 28.042816431000062, -17.47410567999998 ] } },
{ "type": "Feature", "properties": { "name": "Siabuwa Rural Hospital", "ward": "2", "village": "Guteni", "description": "Non-Functional", "imgURL": null, "layer": null, "path": "D:\\perssonal\\BingaMasterPlan\\shapefiles\\Water Points\\Water Points.shp" }, "geometry": { "type": "Point", "coordinates": [ 28.044381632000068, -17.473098026999935 ] } },
{ "type": "Feature", "properties": { "name": "Takwechileta General Dealer", "ward": "2", "village": "Guteni", "description": "Non-Functional", "imgURL": null, "layer": null, "path": "D:\\perssonal\\BingaMasterPlan\\shapefiles\\Water Points\\Water Points.shp" }, "geometry": { "type": "Point", "coordinates": [ 28.044332456000063, -17.474123722999934 ] } },
{ "type": "Feature", "properties": { "name": "Chungu", "ward": "2", "village": "Kalonga", "description": "Collapsed / Abandoned", "imgURL": null, "layer": null, "path": "D:\\perssonal\\BingaMasterPlan\\shapefiles\\Water Points\\Water Points.shp" }, "geometry": { "type": "Point", "coordinates": [ 28.025586262000047, -17.503882336999936 ] } },
{ "type": "Feature", "properties": { "name": "Mpamba", "ward": "2", "village": "Guteni", "description": "Fully Functional", "imgURL": null, "layer": null, "path": "D:\\perssonal\\BingaMasterPlan\\shapefiles\\Water Points\\Water Points.shp" }, "geometry": { "type": "Point", "coordinates": [ 28.03993943200004, -17.473864590999938 ] } },
{ "type": "Feature", "properties": { "name": "Mbalamwana", "ward": "2", "village": "Guteni", "description": "Non-Functional", "imgURL": null, "layer": null, "path": "D:\\perssonal\\BingaMasterPlan\\shapefiles\\Water Points\\Water Points.shp" }, "geometry": { "type": "Point", "coordinates": [ 28.054345706000049, -17.470483808999973 ] } },
{ "type": "Feature", "properties": { "name": "Nkanda", "ward": "2", "village": "Zewula", "description": "Collapsed / Abandoned", "imgURL": null, "layer": null, "path": "D:\\perssonal\\BingaMasterPlan\\shapefiles\\Water Points\\Water Points.shp" },